Price,Area,Price per cent,Location,Latitude,Longitude,distance_to_technopark,distance_to_agasthyamalai_hills,distance_to_ponmudi_hills,distance_to_nearest_beach,distance_to_nearest_lake,density,price_to_price_per_cent_ratio,beach_proximity,lake_proximity,Unnamed: 0,Url
2500000.0,5.0,500000.0,kachani,8.5526,76.9945,17.21477248,42.49269778,46.67588702,15.66521024,14.07399545,Low,5.0,Inland,Inland,,
18000000.0,16.99724518,1058995.138,sreekariyam,8.5468,76.9164,6.659485,49.753912,53.937105,8.572485,6.981275,High,16.997245175265384,Inland,Inland,,
7600000.0,7.998163453,950218.14,puliyarakonam,8.5399,77.0176,20.788535,42.973616,47.156809,17.943719,17.133328,Low,7.998163453288736,Inland,Inland,,
82500000.0,66.98806244,1231562.714,sreekariyam,8.5468,76.9164,6.659485,49.753912,53.937105,8.572485,6.981275,Low,66.98806245282285,Inland,Inland,,
10000000.0,5.99862259,1667049.368,ulloor,8.53,76.9289,9.111596,49.531731,53.714924,6.992217,5.401007,High,5.998622591481646,Inland,Inland,,
25800000.0,21.99724518,1172874.139,vattiyoorkavu,8.5242,76.9881,16.515234,46.077624,50.260817,12.939844,12.129453,Low,21.997245179263007,Inland,Inland,,
25000000.0,25.0,1000000.0,balaramapuram,8.4321,77.0503,28.722221,51.713743,55.896936,10.107014,7.286278,Low,25.0,Inland,Inland,,
79100000.0,225.9641873,350055.4709,nedumangad,8.608,77.0046,20.217621,34.3255,38.508693,21.839424,20.248214,High,225.9641873233183,Inland,Inland,,
11600000.0,10.99862259,1054677.52,karyavattom,8.5678,76.8908,2.866703,52.08072,56.263913,5.540415,9.009202,Low,10.998622593188484,Inland,Inland,,
4000000.0,8.999081726,444489.7959,pravachambalam,8.4494,77.0115,23.16121,54.077387,58.26058,9.69703,4.605345,Low,8.999081726726317,Inland,Inland,,
7200000.0,6.999540863,1028638.898,poojappura,8.488,76.9809,17.666302,51.066598,55.249791,9.785814,10.264713,Low,6.999540863172763,Inland,Inland,,
8250000.0,10.99862259,750093.9261,kazhakkoottam,8.5686,76.8731,1.3051,54.06213,58.245323,3.089955,8.289953,Low,10.998622589699703,Inland,Inland,,
3000000.0,3.999081726,750172.2159,kunnapuzha,8.4912,76.9963,19.593986,49.915616,54.098809,11.672219,9.947392,Low,3.999081726055165,Inland,Inland,,
9000000.0,19.99770432,450051.6587,vattappara,8.5927,76.9499,12.137705,42.670325,46.853518,14.811417,15.145692,Low,19.99770432131506,Inland,Inland,,
2600000.0,5.0,520000.0,pangappara,8.5587,76.898,4.164973,51.468139,55.651332,6.838685,8.480528,Low,5.0,Inland,Inland,,
8400000.0,6.999540863,1200078.714,cheruvikka,8.9066,76.8015,40.40905011,68.51878628,71.18403276,22.73098559,33.9358138,Low,6.999540865116953,Inland,Inland,,
5300000.0,6.999540863,757192.5222,alathara,8.5326,76.8983,6.901241,53.108384,57.291577,6.638185,4.550691,Low,6.999540862607848,Inland,Inland,,
11500000.0,4.997704316,2296375.5430500004,sreevaraham,8.4776,76.942,14.170828,53.174086,57.357279,5.036668,7.29075,Low,4.997704315387302,Inland,Inland,,
9900000.0,21.99724518,450056.3556,neyyattinkara,8.4027,77.0861,33.284209,54.674092,58.857285,11.435348,11.848266,Low,21.997245182332005,Inland,Inland,,
19800000.0,10.99862259,1800225.423,pattom,8.5207,76.9423,11.838466,48.973988,53.157181,7.873973,6.282763,Low,10.998622587500254,Inland,Inland,,
8000000.0,50.0,160000.0,pothencode,8.6195,76.8987,8.680096,47.789459,51.972652,11.139722,14.389154,Low,50.0,Inland,Inland,,
400000.0,5.0,80000.0,nedumangad,8.608,77.0046,20.217621,34.3255,38.508693,21.839424,20.248214,Low,5.0,Inland,Inland,,
20400000.0,9.997704316,2040468.427,vellayambalam,8.5086,76.9657,14.934039,48.781893,52.965086,9.77404,9.187967,Low,9.997704316353042,Inland,Inland,,
3000000.0,5.509641873,544500.0,mangattukonam,8.5921,76.8937,5.847951,51.056459,55.239652,8.521663,12.06546,Low,5.509641873278237,Inland,Inland,,
16800000.0,28.00734619,599842.6229,chittazha,8.5803,76.9456,10.70382784,44.020858,48.20404724,13.37754243,12.73452726,Low,28.0073461915372,Inland,Inland,,
3500000.0,3.999081726,875200.9186,poojappura,8.488,76.9809,17.666302,51.066598,55.249791,9.785814,10.264713,Low,3.999081725826698,Inland,Inland,,
3600000.0,6.019283747,598077.8032,naruvamoodu,8.45,77.0343,25.65008559,51.49093777,55.67412702,12.1871495,7.0954625,Low,6.019283746593323,Inland,Inland,,
950000.0,8.953168044,106107.6923,chakka,8.4988,76.9198,10.94231073,52.73668913,56.91987838,5.355596004,3.948278567,Low,8.953168044726198,Inland,Inland,,
5250000.0,7.412764004,708237.8445,mangattukonam,8.5921,76.8937,5.847951,51.056459,55.239652,8.521663,12.06546,Low,7.412764004028028,Inland,Inland,,
14800000.0,8.748852158,1691650.485,kumarapuram,8.5118,76.9253,11.265095,50.934787,55.11798,5.661267,4.070057,Low,8.748852160202585,Inland,Inland,,
2500000.0,3.443526171,726000.0,thiruvallam,8.4479,76.9557,18.116752,56.031606,60.214799,6.992976,10.639722,Low,3.443526170798898,Inland,Inland,,
75000000.0,33.92102847,2211017.867,kazhakkoottam,8.5686,76.8731,1.3051,54.06213,58.245323,3.089955,8.289953,Low,33.92102846358409,Inland,Inland,,
4500000.0,44.99540863,100010.2041,amboori,8.5041,77.1916,45.65069881,51.48394518,55.66713443,31.94455031,31.69775382,Low,44.995408623508645,Inland,Inland,,
12100000.0,10.99862259,1100137.758,kudappanakunnu,8.549,76.9624,12.911424,44.62843,48.811623,12.428108,10.836898,Low,10.998622592499004,Inland,Inland,,
360000.0,3.443526171,104544.0,malayinkeezh,8.4902,77.0361,24.337032,47.113524,51.296717,16.808597,11.716912,Low,3.443526170798898,Inland,Inland,,
16800000.0,15.99862259,1050090.4,vettukkad,8.4965,76.9017,11.1397871,55.98303373,60.16622298,0.477177484,5.652523663,Low,15.998622594778508,Beachfront,Inland,,
2000000.0,9.997704316,200045.9242,marayamuttom,8.4165,77.1082,36.100454,55.447474,59.630667,14.522803,15.175828,Low,9.997704317136996,Inland,Inland,,
1300000.0,3.999081726,325074.6269,thirumala,8.5041,76.9917,18.7736,48.798465,52.981658,11.666181,11.668466,Low,3.999081725932145,Inland,Inland,,
42000000.0,34.9862259,1200472.441,kulathoor,8.3319,77.0967,40.38119,64.786367,68.96956,5.40518,19.586336,Low,34.986225893710454,Inland,Inland,,
6000000.0,3.999081726,1500344.432,kumarapuram,8.5118,76.9253,11.265095,50.934787,55.11798,5.661267,4.070057,Low,3.999081725522077,Inland,Inland,,
10000000.0,9.997704316,1000229.621,technopark,8.5581,76.8816,2.724974884,53.80764552,57.99083477,5.398689473,7.571957401,High,9.997704317136996,Inland,Inland,,
12000000.0,9.997704316,1200275.545,vettamukku,8.5066,76.9858,17.774202,48.59153,52.774723,11.832711,12.02813,Low,9.997704318802898,Inland,Inland,,
10200000.0,5.99862259,1700390.356,pongumoodu,8.5393,76.9174,7.839663,50.295587,54.47878,7.969712,6.378502,Low,5.99862258922386,Inland,Inland,,
8000000.0,16.01239669,499612.9034,kattakkada,8.5033,77.0852,29.967282,42.455763,46.638956,20.251251,17.19968,Low,16.01239668863204,Inland,Inland,,
5600000.0,6.999540863,800052.4762,peyad,8.5173,77.0237,22.032659,45.040947,49.22414,15.810231,14.532601,Low,6.999540863367182,Inland,Inland,,
16800000.0,11.99954086,1400053.568,pattom,8.5207,76.9423,11.838466,48.973988,53.157181,7.873973,6.282763,High,11.999540863282167,Inland,Inland,,
11300000.0,14.99770432,753448.6451,kudappanakunnu,8.549,76.9624,12.911424,44.62843,48.811623,12.428108,10.836898,Low,14.997704320644482,Inland,Inland,,
18000000.0,11.99954086,1500057.395,kowdiar,8.5222,76.9605,13.27826467,46.80432058,50.98750983,9.780415629,8.189200846,Low,11.99954085756832,Inland,Inland,,
72000000.0,35.99632691,2000204.081,medicalcollege,8.5236,76.9283,9.844377,50.239953,54.423146,6.533052,4.941842,High,35.99632691680325,Inland,Inland,,
6800000.0,7.998163453,850195.1779,mannanthala,8.5616,76.9427,9.841727,45.625621,49.808814,11.934242,10.343032,Low,7.998163453239224,Inland,Inland,,
3350000.0,13.99908173,239301.4102,kowdiar,8.5222,76.9605,13.27826467,46.80432058,50.98750983,9.780415629,8.189200846,High,13.999081732114254,Inland,Inland,,
8100000.0,6.756198347,1198899.083,peroorkada,8.5376,76.9666,13.216524,44.763425,48.946618,11.353845,9.762635,Low,6.756198344677522,Inland,Inland,,
36000000.0,30.00459137,1199816.373,jagathy,8.4959,76.9665,15.94333034,50.1200785,54.30326774,8.893930279,9.847007231,Low,30.00459137758408,Inland,Inland,,
3200000.0,7.998163453,400091.8484,palayam,8.5039,76.9511,13.44172217,49.62898182,53.81217107,7.498876173,7.529455411,Low,7.998163453709595,Inland,Inland,,
2780000.0,3.698347107,751687.1509,pattoor,8.4984,76.9348,12.46180318,51.40185614,55.58504538,5.353996926,5.266759453,Low,3.6983471071329177,Inland,Inland,,
4500000.0,5.0,900000.0,karakkamandapam,8.4579,76.9994,21.37635035,53.0794474,57.26263664,10.80107888,5.715451375,Low,5.0,Inland,Inland,,
10000000.0,18.99678604,526404.8339,karakkamandapam,8.4579,76.9994,21.37635035,53.0794474,57.26263664,10.80107888,5.715451375,Low,18.996786039961933,Inland,Inland,,
8000000.0,5.0,1600000.0,kesavadasapuram,8.5297,76.9384,10.113221,48.454074,52.637267,8.046797,6.455587,Low,5.0,Inland,Inland,,
17600000.0,21.99724518,800100.1878,vallakkadavu,8.475,76.9195,14.243906,56.705267,60.88846,1.158748,8.862686,Low,21.99724518049913,Sea view,Inland,,
37500000.0,223.1404959,168055.5555,vallakkadavu,8.475,76.9195,14.243906,56.705267,60.88846,1.158748,8.862686,Low,223.14049594153408,Sea view,Inland,,
1800000.0,3.000459137,599908.1867,mannanthala,8.5616,76.9427,9.841727,45.625621,49.808814,11.934242,10.343032,Low,3.000459136758101,Inland,Inland,,
850000.0,5.99862259,141699.1963,kanjirampara,8.5171,76.9773,15.780727,47.735388,51.918581,11.896085,11.310012,Low,5.998622590634976,Inland,Inland,,
35000000.0,39.99081726,875200.9186,karimankulam,8.5189,76.9902,17.30840689,47.05528786,51.2384771,12.86621131,12.28012439,Low,39.990817258266986,Inland,Inland,,
4200000.0,13.99908173,300019.6785,peroorkada,8.5376,76.9666,13.216524,44.763425,48.946618,11.353845,9.762635,Low,13.999081730233906,Inland,Inland,,
30000000.0,19.99770432,1500172.196,thampuranmukku,8.5305,76.8848,5.179998108,54.4895358,58.67272504,5.702796647,3.615300573,Low,19.99770431687164,Inland,Inland,,
16500000.0,5.99862259,2296375.5430500004,sreevaraham,8.4776,76.942,14.170828,53.174086,57.357279,5.036668,7.29075,High,5.998622589736993,Inland,Inland,,
5000000.0,9.997704316,500114.8106,sreevaraham,8.4776,76.942,14.170828,53.174086,57.357279,5.036668,7.29075,Low,9.997704315137913,Inland,Inland,,
14000000.0,21.99724518,636443.3312,poojappura,8.488,76.9809,17.666302,51.066598,55.249791,9.785814,10.264713,Low,21.99724518065624,Inland,Inland,,
40500000.0,44.99540863,900091.8368,sasthamangalam,8.513,76.9715,15.327905,47.951141,52.134334,10.167906,9.581833,Low,44.995408628507626,Inland,Inland,,
24000000.0,32.00183655,749956.9583,avanavanchery,8.6965,76.8404,17.52665801,55.88242375,60.065613,17.88029686,11.87821419,High,32.00183655126438,Inland,Inland,,
3500000.0,3.999081726,875200.9186,peroorkada,8.5376,76.9666,13.216524,44.763425,48.946618,11.353845,9.762635,Low,3.999081725826698,Inland,Inland,,
6500000.0,5.0,1300000.0,kudappanakunnu,8.549,76.9624,12.911424,44.62843,48.811623,12.428108,10.836898,Low,5.0,Inland,Inland,,
6000000.0,14.99770432,400061.2275,nedumangad,8.608,77.0046,20.217621,34.3255,38.508693,21.839424,20.248214,Low,14.997704320146848,Inland,Inland,,
8200000.0,5.495867769,1492030.075,eanchakkal,8.4832,76.9283,12.376686,53.793431,57.976624,4.90569,5.756844,Low,5.495867769287425,Inland,Inland,,
9380000.0,3.999081726,2296375.5430500004,palayam,8.5039,76.9511,13.44172217,49.62898182,53.81217107,7.498876173,7.529455411,High,3.999081725567543,Inland,Inland,,
4300000.0,5.99862259,716831.2284,kariyam,8.5582,76.9225,7.39761,48.426693,52.609886,10.071322,8.990994,Low,5.998622590142726,Inland,Inland,,
7500000.0,4.942607897,1517417.557,gowreesapattom,8.5083,76.9362,11.94846416,50.21112062,54.39430986,7.034774582,5.870142076,Low,4.942607896819003,Inland,Inland,,
7200000.0,5.99862259,1200275.545,gowreesapattom,8.5083,76.9362,11.94846416,50.21112062,54.39430986,7.034774582,5.870142076,Low,5.998622591281738,Inland,Inland,,
18500000.0,39.99081726,462606.1998,manvila,8.5438,76.8937,5.363685714,52.44994013,56.63312937,6.459619669,5.356686357,Low,39.99081726098389,Inland,Inland,,
35000000.0,39.99081726,875200.9186,karimankulam,8.5189,76.9902,17.30840689,47.05528786,51.2384771,12.86621131,12.28012439,Low,39.990817258266986,Inland,Inland,,
16900000.0,9.400826446,1797714.286,jawaharnagar,8.5166,76.9669,14.53887058,47.83838152,52.02157077,10.09663533,9.449806752,Low,9.4008264447869,Inland,Inland,,
1500000.0,5.739210285,261360.0,killipalam,8.4762,76.96,16.38434592,52.54291882,56.72610806,6.617892421,9.437680072,Low,5.73921028466483,Inland,Inland,,
5000000.0,8.999081726,555612.2449,chanthavila,8.5918,76.8851,4.74723235,51.61804058,55.80122982,7.206852193,11.73208746,Low,8.999081726321398,Inland,Inland,,
9000000.0,5.0,1800000.0,vellayambalam,8.5086,76.9657,14.934039,48.781893,52.965086,9.77404,9.187967,Low,5.0,Inland,Inland,,
10000000.0,9.997704316,1000229.621,vettamukku,8.5066,76.9858,17.774202,48.59153,52.774723,11.832711,12.02813,Low,9.997704317136996,Inland,Inland,,
6000000.0,30.00459137,199969.3956,ayiroopara,8.6077,76.9153,8.86862348,46.8795964,51.06278565,11.54233807,14.96898055,Low,30.00459136257949,Inland,Inland,,
15600000.0,11.99954086,1300049.742,anayara,8.5096,76.9168,9.945451099,52.61181266,56.7950019,4.341622156,2.750407373,Low,11.999540860645007,Inland,Lake view,,
20000000.0,21.99724518,909204.7589,kazhakkoottam,8.5686,76.8731,1.3051,54.06213,58.245323,3.089955,8.289953,High,21.99724517961935,Inland,Inland,,
22000000.0,10.99862259,2000250.47,kazhakkoottam,8.5686,76.8731,1.3051,54.06213,58.245323,3.089955,8.289953,Low,10.998622587500254,Inland,Inland,,
5900000.0,6.999540863,842912.4303,pappanamcode,8.4697,76.9818,19.03315,53.303922,57.487115,9.705932,8.051016,Low,6.999540863218897,Inland,Inland,,
8000000.0,19.99770432,400045.9189,peyad,8.5173,77.0237,22.032659,45.040947,49.22414,15.810231,14.532601,Low,19.99770431853792,Inland,Inland,,
15000000.0,9.997704316,1500344.432,thirumala,8.5041,76.9917,18.7736,48.798465,52.981658,11.666181,11.668466,Low,9.997704313805192,Inland,Inland,,
4000000.0,11.99954086,333346.0877,kesavadasapuram,8.5297,76.9384,10.113221,48.454074,52.637267,8.046797,6.455587,High,11.999540860368109,Inland,Inland,,
2500000.0,8.999081726,277806.1225,anayara,8.5096,76.9168,9.945451099,52.61181266,56.7950019,4.341622156,2.750407373,Low,8.99908172470173,Inland,Lake view,,
3000000.0,12.51147842,239779.8165,mangalapuram,8.6242,76.8485,8.468869,54.078949,58.262142,8.822511,7.944839,Low,12.511478421287393,Inland,Inland,,
8700000.0,7.318640955,1188745.295,vattiyoorkavu,8.5242,76.9881,16.515234,46.077624,50.260817,12.939844,12.129453,Low,7.318640954116248,Inland,Inland,,
10200000.0,5.99862259,1700390.356,poojappura,8.488,76.9809,17.666302,51.066598,55.249791,9.785814,10.264713,Low,5.99862258922386,Inland,Inland,,
50000000.0,50.0,1000000.0,balaramapuram,8.4321,77.0503,28.722221,51.713743,55.896936,10.107014,7.286278,Low,50.0,Inland,Inland,,
1550000.0,21.99724518,70463.36881,karyavattom,8.5678,76.8908,2.866703,52.08072,56.263913,5.540415,9.009202,Low,21.997245181102205,Inland,Inland,,
8000000.0,5.0,1600000.0,sasthamangalam,8.513,76.9715,15.327905,47.951141,52.134334,10.167906,9.581833,Low,5.0,Inland,Inland,,
1000000.0,9.997704316,100022.9621,vizhinjam,8.3932,77.0046,26.898654,59.525163,63.708356,4.045079,5.713554,Low,9.997704317136996,Inland,Inland,,
7050000.0,23.48484848,300193.5484,attingal,8.6982,76.8137,18.106345,58.660363,62.843556,16.803479,11.596318,Low,23.48484848383904,Inland,Inland,,
14000000.0,19.99770432,700080.358,mangalapuram,8.6242,76.8485,8.468869,54.078949,58.262142,8.822511,7.944839,Low,19.997704320680285,Inland,Inland,,
10800000.0,5.99862259,1800413.318,anayara,8.5096,76.9168,9.945451099,52.61181266,56.7950019,4.341622156,2.750407373,Low,5.998622589615836,Inland,Lake view,,
7500000.0,13.99908173,535749.4259,chirayinkeezhu,8.6559,76.7832,17.625025,63.593848,67.777041,13.807769,6.636703,Low,13.999081730047262,Inland,Inland,,
7500000.0,30.00459137,249961.7444,kazhakkoottam,8.5686,76.8731,1.3051,54.06213,58.245323,3.089955,8.289953,Low,30.00459137458316,Inland,Inland,,
6300000.0,17.99816345,350035.7143,balaramapuram,8.4321,77.0503,28.722221,51.713743,55.896936,10.107014,7.286278,Low,17.998163451974364,Inland,Inland,,
8500000.0,14.99770432,566753.4056,kulasekharam,8.5234,77.0061,19.250056,45.812396,49.995589,14.881053,14.82385,Low,14.997704320808406,Inland,Inland,,
7440000.0,5.99862259,1240284.73,ulloor,8.53,76.9289,9.111596,49.531731,53.714924,6.992217,5.401007,Low,5.998622590475656,Inland,Inland,,
2450000.0,3.000459137,816541.6985,pallichal,8.45,77.0261,24.70828712,52.43273625,56.61592549,11.24535103,6.153664026,Low,3.000459136992867,Inland,Inland,,
24000000.0,19.99770432,1200137.757,kudappanakunnu,8.549,76.9624,12.911424,44.62843,48.811623,12.428108,10.836898,Low,19.997704313539067,Inland,Inland,,
6980000.0,14.99770432,465404.5613,thiruvallam,8.4479,76.9557,18.116752,56.031606,60.214799,6.992976,10.639722,Low,14.997704320952472,Inland,Inland,,
1750000.0,5.0,350000.0,vattappara,8.5927,76.9499,12.137705,42.670325,46.853518,14.811417,15.145692,High,5.0,Inland,Inland,,
5610000.0,6.597796143,850283.9249,thattinakam,8.5464,76.9324,8.676915893,48.1976493,52.38083855,9.231446756,7.640231973,Low,6.597796142811685,Inland,Inland,,
3800000.0,5.0,760000.0,vattiyoorkavu,8.5242,76.9881,16.515234,46.077624,50.260817,12.939844,12.129453,Low,5.0,Inland,Inland,,
21000000.0,19.99770432,1050120.537,kovalam,8.3988,76.982,23.553144,62.189857,66.37305,1.251557,5.736696,Low,19.997704320680285,Sea view,Inland,,
4800000.0,5.99862259,800183.6968,neyyattinkara,8.4027,77.0861,33.284209,54.674092,58.857285,11.435348,11.848266,Low,5.998622590282197,Inland,Inland,,
11200000.0,8.000459137,1399919.656,karyavattom,8.5678,76.8908,2.866703,52.08072,56.263913,5.540415,9.009202,Low,8.000459134920526,Inland,Inland,,
1100000.0,11.99954086,91670.17412,pappanamcode,8.4697,76.9818,19.03315,53.303922,57.487115,9.705932,8.051016,Low,11.999540860040858,Inland,Inland,,
8100000.0,9.997704316,810185.9931,venganoor,8.4051,77.0056,26.741916,58.974826,63.158019,4.622647,4.105535,Low,9.997704316026397,Inland,Inland,,
5700000.0,5.99862259,950218.14,kazhakkoottam,8.5686,76.8731,1.3051,54.06213,58.245323,3.089955,8.289953,Low,5.998622589966552,Inland,Inland,,
9000000.0,5.99862259,1500344.432,kunnukuzhi,8.5051,76.9398,12.81252173,50.30887605,54.49206529,6.397435436,6.228661726,Low,5.998622588283115,Inland,Inland,,
23800000.0,15.99862259,1487628.067,thirumala,8.5041,76.9917,18.7736,48.798465,52.981658,11.666181,11.668466,Low,15.998622591193689,Inland,Inland,,
4000000.0,10.99862259,363681.9036,peyad,8.5173,77.0237,22.032659,45.040947,49.22414,15.810231,14.532601,Low,10.99862258859998,Inland,Inland,,
9000000.0,9.997704316,900206.659,poojappura,8.488,76.9809,17.666302,51.066598,55.249791,9.785814,10.264713,Low,9.997704316026391,Inland,Inland,,
6000000.0,9.997704316,600137.7727,thonnakkal,8.6359,76.8462,9.776158283,54.90831158,59.09150083,10.12979713,7.212704055,High,9.997704315471092,Inland,Inland,,
7750000.0,61.98347107,125033.3333,neyyattinkara,8.4027,77.0861,33.284209,54.674092,58.857285,11.435348,11.848266,Low,61.983471090904686,Inland,Inland,,
3600000.0,3.999081726,900206.6591,kazhakkoottam,8.5686,76.8731,1.3051,54.06213,58.245323,3.089955,8.289953,Low,3.9990817259663167,Inland,Inland,,
990000.0,3.999081726,247556.8313,kazhakkoottam,8.5686,76.8731,1.3051,54.06213,58.245323,3.089955,8.289953,Low,3.9990817251989927,Inland,Inland,,
80000000.0,89.99081726,888979.5919,technopark,8.5581,76.8816,2.724974884,53.80764552,57.99083477,5.398689473,7.571957401,Low,89.99081725714024,Inland,Inland,,
19200000.0,15.99862259,1200103.315,anayara,8.5096,76.9168,9.945451099,52.61181266,56.7950019,4.341622156,2.750407373,Low,15.998622585256337,Inland,Lake view,,
13500000.0,30.00459137,449931.14,pothencode,8.6195,76.8987,8.680096,47.789459,51.972652,11.139722,14.389154,Low,30.004591369248192,Inland,Inland,,
44000000.0,19.99770432,2200252.554,kannammula,8.5048,76.9312,12.174392,51.10450691,55.28769616,6.112001144,5.212514367,Low,19.99770431808348,Inland,Inland,,
9600000.0,11.99954086,800030.6105,karakkamandapam,8.4579,76.9994,21.37635035,53.0794474,57.26263664,10.80107888,5.715451375,Low,11.99954086006813,Inland,Inland,,
14000000.0,6.999540863,2000131.191,manacaud,8.4719,76.9518,15.759957,53.201069,57.384262,5.722958,8.862142,Low,6.999540861617412,Inland,Inland,,
22800000.0,64.99081726,350818.792,chempakamangalam,8.6481,76.8404,11.39745961,55.9141837,60.09737294,11.75109846,6.699311048,Low,64.99081725359797,Inland,Inland,,
12000000.0,41.32231405,290400.0,puthenchantha,8.4929,76.9474,14.377587,50.99278705,55.1759763,6.996457391,7.182543274,Low,41.32231404958678,Inland,Inland,,
7200000.0,3.999081726,1800413.318,killipalam,8.4762,76.96,16.38434592,52.54291882,56.72610806,6.617892421,9.437680072,Low,3.999081726410557,Inland,Inland,,
13000000.0,19.99770432,650074.6182,kazhakkoottam,8.5686,76.8731,1.3051,54.06213,58.245323,3.089955,8.289953,Low,19.997704318922445,Inland,Inland,,
60000000.0,30.00459137,1999693.956,muttada,8.5338,76.9471,11.165785,47.385297,51.56849,9.602435,8.011225,Low,30.00459136257949,Inland,Inland,,
550000.0,5.991735537,91793.10345,mangalapuram,8.6242,76.8485,8.468869,54.078949,58.262142,8.822511,7.944839,Low,5.991735537077541,Inland,Inland,,
9500000.0,30.00459137,316618.2096,dhanuvachapuram,8.3839,77.1284,39.091777,60.538666,64.721859,12.613436,17.655834,Low,30.00459137205607,Inland,Inland,,
10200000.0,8.49862259,1200194.489,balaramapuram,8.4321,77.0503,28.722221,51.713743,55.896936,10.107014,7.286278,Low,8.498622592825454,Inland,Inland,,
40000000.0,99.97704316,400091.8484,pallichal,8.45,77.0261,24.70828712,52.43273625,56.61592549,11.24535103,6.153664026,Low,99.97704317136994,Inland,Inland,,
90000000.0,100.0,900000.0,vithura,8.6753,77.0852,36.060227,19.26824,23.451433,37.68203,36.09082,Low,100.0,Inland,Inland,,
7200000.0,5.991735537,1201655.172,nedumangad,8.608,77.0046,20.217621,34.3255,38.508693,21.839424,20.248214,Low,5.991735539253352,Inland,Inland,,
25800000.0,85.99632691,300012.8137,korani,8.6645,76.8403,13.053363,56.995348,61.178541,13.407005,7.973785,Low,85.99632689622017,Inland,Inland,,
3500000.0,41.98806244,83357.0257,nemom,8.4579,76.9994,21.375005,53.082335,57.265528,10.794403,5.708785,Low,41.98806244114826,Inland,Inland,,
28200000.0,93.98530762,300046.8979,pravachambalam,8.4494,77.0115,23.16121,54.077387,58.26058,9.69703,4.605345,Low,93.98530762147232,Inland,Inland,,
56000000.0,55.99173554,1000147.601,karyavattom,8.5678,76.8908,2.866703,52.08072,56.263913,5.540415,9.009202,Low,55.99173556383904,Inland,Inland,,
12000000.0,5.99862259,2000459.242,ptpnagar,8.5115,76.9909,17.622995,47.816632,51.999825,12.841586,12.255513,Low,5.998622590282197,Inland,Inland,,
4500000.0,5.968778696,753923.0769,kudappanakunnu,8.549,76.9624,12.911424,44.62843,48.811623,12.428108,10.836898,Low,5.968778696234122,Inland,Inland,,
2000000.0,25.0,80000.0,kunnapuzha,8.4912,76.9963,19.593986,49.915616,54.098809,11.672219,9.947392,Low,25.0,Inland,Inland,,
11200000.0,13.99908173,800052.476,kulathoor,8.3319,77.0967,40.38119,64.786367,68.96956,5.40518,19.586336,Low,13.999081730233906,Inland,Inland,,
7500000.0,9.87144169,759767.4418,karyavattom,8.5678,76.8908,2.866703,52.08072,56.263913,5.540415,9.009202,Low,9.871441690409114,Inland,Inland,,
28000000.0,28.00734619,999737.7049,thiruvallam,8.4479,76.9557,18.116752,56.031606,60.214799,6.992976,10.639722,Low,28.007346189669555,Inland,Inland,,
12000000.0,14.92194674,804184.6154,kulathoor,8.3319,77.0967,40.38119,64.786367,68.96956,5.40518,19.586336,Low,14.92194673984309,Inland,Inland,,
68000000.0,79.98163453,850195.1779,mangalapuram,8.6242,76.8485,8.468869,54.078949,58.262142,8.822511,7.944839,Low,79.98163453239223,Inland,Inland,,
52500000.0,23.98989899,2188421.053,murinjapalam,8.5162,76.9319,11.094788,50.327682,54.510875,6.259731,4.668521,High,23.98989898586029,Inland,Inland,,
14400000.0,100.0,144000.0,kattakkada,8.5033,77.0852,29.967282,42.455763,46.638956,20.251251,17.19968,Low,100.0,Inland,Inland,,
400000.0,5.165289256,77440.0,vizhinjam,8.3932,77.0046,26.898654,59.525163,63.708356,4.045079,5.713554,Low,5.1652892561983474,Inland,Inland,,
980000.0,6.999540863,140009.1833,nemom,8.4579,76.9994,21.375005,53.082335,57.265528,10.794403,5.708785,Low,6.999540865116953,Inland,Inland,,
9000000.0,5.99862259,1500344.432,kuravankonam,8.5243,76.9542,12.6403,47.342422,51.525615,9.142452,7.551242,Low,5.998622588283115,Inland,Inland,,
4000000.0,39.99081726,100022.9621,vattappara,8.5927,76.9499,12.137705,42.670325,46.853518,14.811417,15.145692,Low,39.99081726854798,Inland,Inland,,
2400000.0,3.730486685,643347.6923,powdikonam,8.5731,76.9261,7.703057,46.78539,50.968583,10.376769,10.711044,Low,3.730486685076744,Inland,Inland,,
10000000.0,8.999081726,1111224.49,pongumoodu,8.5393,76.9174,7.839663,50.295587,54.47878,7.969712,6.378502,Low,8.99908172470173,Inland,Inland,,
60000000.0,126.2626263,475199.9999,poovar,8.3177,77.0708,37.817518,65.179452,69.362645,0.905822,17.359581,Low,126.26262628919667,Beachfront,Inland,,
91500000.0,60.99632691,1500090.327,pangappara,8.5587,76.898,4.164973,51.468139,55.651332,6.838685,8.480528,Low,60.996326923185336,Inland,Inland,,
800000.0,5.0,160000.0,peroorkada,8.5376,76.9666,13.216524,44.763425,48.946618,11.353845,9.762635,Low,5.0,Inland,Inland,,
20000000.0,21.99724518,909204.7589,kazhakkoottam,8.5686,76.8731,1.3051,54.06213,58.245323,3.089955,8.289953,Low,21.99724517961935,Inland,Inland,,
10000000.0,25.0,400000.0,vizhinjam,8.3932,77.0046,26.898654,59.525163,63.708356,4.045079,5.713554,Low,25.0,Inland,Inland,,
6100000.0,6.999540863,871485.733,thachottukavu,8.5077,77.0266,22.19774129,45.70642417,49.88961341,15.83652841,13.0884746,Low,6.999540863395867,Inland,Inland,,
4050000.0,8.999081726,450045.9184,murukkumpuzha,8.6102,76.8346,8.262442,56.569116,60.752309,7.676677,7.262022,Low,8.999081725701526,Inland,Inland,,
9000000.0,14.99770432,600091.8413,balaramapuram,8.4321,77.0503,28.722221,51.713743,55.896936,10.107014,7.286278,Low,14.99770431889723,Inland,Inland,,
13800000.0,23.00275482,599928.1437,kaniyapuram,8.5844,76.8503,4.769451,55.768939,59.952132,3.451234,11.161453,High,23.00275482141879,Inland,Inland,,
16500000.0,14.99770432,1100168.376,kulasekharam,8.5234,77.0061,19.250056,45.812396,49.995589,14.881053,14.82385,Low,14.997704315034776,Inland,Inland,,
450000.0,6.999540863,64289.93113,aruvikkara,8.5654,77.0161,19.941956,38.705062,42.888255,19.304954,17.713744,Low,6.999540862628391,Inland,Inland,,
8800000.0,10.99862259,800100.1878,manacaud,8.4719,76.9518,15.759957,53.201069,57.384262,5.722958,8.862142,Low,10.998622590249566,Inland,Inland,,
26400000.0,87.99357208,300021.915,vellarada,8.4497,77.1957,45.870512,55.487679,59.670872,26.450605,28.426036,Low,87.99357206956033,Inland,Inland,,
3300000.0,6.999540863,471459.4949,maranalloor,8.4717,77.0725,29.621348,46.281591,50.464784,15.539166,12.487595,Low,6.999540863420206,Inland,Inland,,
19200000.0,48.00275482,399977.0445,kattakkada,8.5033,77.0852,29.967282,42.455763,46.638956,20.251251,17.19968,Low,48.00275481809557,Inland,Inland,,
16000000.0,15.99862259,1000086.096,mannammoola,8.5305,76.9773,14.6048307,45.9664035,50.14959274,12.3578281,11.18324163,Low,15.998622582590128,Inland,Inland,,
5480000.0,5.0,1096000.0,kazhakkoottam,8.5686,76.8731,1.3051,54.06213,58.245323,3.089955,8.289953,Low,5.0,Inland,Inland,,
1500000.0,3.000459137,499923.4889,chempazhanthy,8.5685,76.911,5.671593,49.194384,53.377577,8.345305,9.877435,Low,3.000459136858132,Inland,Inland,,
20000000.0,99.97704316,200045.9242,kallara,8.7591,76.9462,29.15858238,42.15172166,44.69087341,31.37276448,28.51600514,Low,99.97704317136994,Inland,Inland,,
9500000.0,4.800275482,1979053.085,kalady,8.4683,76.9629,17.53628,53.635972,57.819165,7.447503,9.930637,Low,4.80027548124107,Inland,Inland,,
11500000.0,21.99724518,522792.7364,chenkottukonam,8.5838,76.9024,5.331495,49.784346,53.967539,8.005207,11.549004,Low,21.99724517825187,Inland,Inland,,
35000000.0,25.0,1400000.0,muttada,8.5338,76.9471,11.165785,47.385297,51.56849,9.602435,8.011225,Low,25.0,Inland,Inland,,
7500000.0,7.497704316,1000306.185,manikanteswaram,8.5387,76.9801,14.97380425,44.88058859,49.06377784,13.17586583,11.58465105,High,7.497704315404188,Inland,Inland,,
3200000.0,3.999081726,800183.697,vattiyoorkavu,8.5242,76.9881,16.515234,46.077624,50.260817,12.939844,12.129453,Low,3.9990817258552567,Inland,Inland,,
12000000.0,5.99862259,2000459.242,chakka,8.4988,76.9198,10.94231073,52.73668913,56.91987838,5.355596004,3.948278567,Low,5.998622590282197,Inland,Inland,,
10000000.0,9.997704316,1000229.621,pallichal,8.45,77.0261,24.70828712,52.43273625,56.61592549,11.24535103,6.153664026,Low,9.997704317136996,Inland,Inland,,
4000000.0,9.997704316,400091.8484,kalliyoor,8.4325,77.0167,25.17952512,55.83639169,60.01958094,7.757481814,2.929947646,Low,9.997704317136996,Inland,Lake view,,
16000000.0,7.998163453,2000459.242,kaimanam,8.4741,76.9773,18.543781,53.693183,57.876376,9.216563,8.806839,Low,7.998163453709595,Inland,Inland,,
13000000.0,12.99816345,1000141.293,kaniyapuram,8.5844,76.8503,4.769451,55.768939,59.952132,3.451234,11.161453,Low,12.99816345049159,Inland,Inland,,
2520000.0,5.99862259,420096.4408,karakulam,8.5672,76.9902,16.460873,40.714745,44.897938,16.116962,14.525752,Low,5.998622590567781,Inland,Inland,,
3800000.0,3.999081726,950218.1402,karamana,8.482,76.9661,16.828027,51.927718,56.110911,7.535672,9.632989,Low,3.9990817258026494,Inland,Inland,,
1300000.0,5.0,260000.0,malayam,8.4764,77.0101,23.23933396,50.61725733,54.80044657,13.80832554,8.722698042,Low,5.0,Inland,Inland,,
4000000.0,5.0,800000.0,pangappara,8.5587,76.898,4.164973,51.468139,55.651332,6.838685,8.480528,Low,5.0,Inland,Inland,,
2700000.0,10.0,270000.0,kattakkada,8.5033,77.0852,29.967282,42.455763,46.638956,20.251251,17.19968,Low,10.0,Inland,Inland,,
8400000.0,28.00734619,299921.3115,venganoor,8.4051,77.0056,26.741916,58.974826,63.158019,4.622647,4.105535,Low,28.007346186868084,Inland,Inland,,
55000000.0,25.0,2200000.0,eanchakkal,8.4832,76.9283,12.376686,53.793431,57.976624,4.90569,5.756844,Low,25.0,Inland,Inland,,
15000000.0,20.99632691,714410.6712,nedumangad,8.608,77.0046,20.217621,34.3255,38.508693,21.839424,20.248214,Low,20.99632690928932,Inland,Inland,,
12300000.0,16.49908173,745496.0343,kachani,8.5526,76.9945,17.21477248,42.49269778,46.67588702,15.66521024,14.07399545,Low,16.49908173093014,Inland,Inland,,
4550000.0,5.99862259,758507.4626,karyavattom,8.5678,76.8908,2.866703,52.08072,56.263913,5.540415,9.009202,Low,5.998622590216293,Inland,Inland,,
7100000.0,4.651056015,1526535.044,anayara,8.5096,76.9168,9.945451099,52.61181266,56.7950019,4.341622156,2.750407373,Low,4.651056015979677,Inland,Lake view,,
4400000.0,5.99862259,733501.7221,peroorkada,8.5376,76.9666,13.216524,44.763425,48.946618,11.353845,9.762635,Low,5.998622590009594,Inland,Inland,,
940000.0,6.999540863,134294.5228,kattakkada,8.5033,77.0852,29.967282,42.455763,46.638956,20.251251,17.19968,Low,6.999540862883203,Inland,Inland,,
4500000.0,14.99770432,300045.9206,chenkottukonam,8.5838,76.9024,5.331495,49.784346,53.967539,8.005207,11.549004,Low,14.997704321396462,Inland,Inland,,
30000000.0,12.99816345,2296375.5430500004,nemom,8.4579,76.9994,21.375005,53.082335,57.265528,10.794403,5.708785,Low,12.998163447459111,Inland,Inland,,
4200000.0,20.0,210000.0,vattappara,8.5927,76.9499,12.137705,42.670325,46.853518,14.811417,15.145692,Low,20.0,Inland,Inland,,
1800000.0,5.0,360000.0,puliyarakonam,8.5399,77.0176,20.788535,42.973616,47.156809,17.943719,17.133328,Low,5.0,Inland,Inland,,
41000000.0,57.39210285,714384.0,powdikonam,8.5731,76.9261,7.703057,46.78539,50.968583,10.376769,10.711044,Low,57.3921028466483,Inland,Inland,,
4500000.0,5.0,900000.0,peroorkada,8.5376,76.9666,13.216524,44.763425,48.946618,11.353845,9.762635,Low,5.0,Inland,Inland,,
2500000.0,9.997704316,250057.4053,kattakkada,8.5033,77.0852,29.967282,42.455763,46.638956,20.251251,17.19968,Low,9.997704315137913,Inland,Inland,,
1300000.0,3.999081726,325074.6269,andoorkonam,8.6009,76.875,5.988115261,51.7049669,55.88815614,7.515195276,12.83018796,High,3.999081725932145,Inland,Inland,,
36500000.0,12.99816345,2296375.5430500004,pallichal,8.45,77.0261,24.70828712,52.43273625,56.61592549,11.24535103,6.153664026,Low,12.998163450313555,Inland,Inland,,
1500000.0,4.59825528,326210.684,chempazhanthy,8.5685,76.911,5.671593,49.194384,53.377577,8.345305,9.877435,High,4.598255279707516,Inland,Inland,,
5600000.0,7.998163453,700160.7348,thiruvallam,8.4479,76.9557,18.116752,56.031606,60.214799,6.992976,10.639722,Low,7.998163452567264,Inland,Inland,,
6000000.0,6.999540863,857199.0817,chavadimukku,8.5514,76.9106,5.661889,50.200979,54.384172,8.335601,7.268137,Low,6.999540862900577,Inland,Inland,,
730000.0,7.998163453,91270.95292,maruthoor,8.5733,76.9447,10.291492,44.381455,48.564648,12.965204,11.99152,Low,7.99816345338098,Inland,Inland,,
750000.0,3.994490358,187758.6207,kunnapuzha,8.4912,76.9963,19.593986,49.915616,54.098809,11.672219,9.947392,Low,3.99449035790664,Inland,Inland,,
16000000.0,112.5114784,142207.7127,kallummoodu,8.499,76.9197,10.90155586,52.76113409,56.94432333,5.314841135,3.90296346,Low,112.51147842981936,Inland,Inland,,
6500000.0,5.0,1300000.0,vettamukku,8.5066,76.9858,17.774202,48.59153,52.774723,11.832711,12.02813,Low,5.0,Inland,Inland,,
5040000.0,5.99862259,840192.8817,pangappara,8.5587,76.898,4.164973,51.468139,55.651332,6.838685,8.480528,Low,5.998622589853822,Inland,Inland,,
5500000.0,19.99770432,275031.5692,thonnakkal,8.6359,76.8462,9.776158283,54.90831158,59.09150083,10.12979713,7.212704055,Low,19.99770432171901,Inland,Inland,,
16800000.0,75.0,224000.0,pothencode,8.6195,76.8987,8.680096,47.789459,51.972652,11.139722,14.389154,Low,75.0,Inland,Inland,,
12500000.0,11.99954086,1041706.524,pappanamcode,8.4697,76.9818,19.03315,53.303922,57.487115,9.705932,8.051016,High,11.99954086108805,Inland,Inland,,
50000000.0,50.0,1000000.0,balaramapuram,8.4321,77.0503,28.722221,51.713743,55.896936,10.107014,7.286278,Low,50.0,Inland,Inland,,
6250000.0,5.0,1250000.0,sreekariyam,8.5468,76.9164,6.659485,49.753912,53.937105,8.572485,6.981275,Low,5.0,Inland,Inland,,
2100000.0,6.999540863,300019.6786,pothencode,8.6195,76.8987,8.680096,47.789459,51.972652,11.139722,14.389154,Low,6.999540862783926,Inland,Inland,,
12000000.0,9.997704316,1200275.545,poojappura,8.488,76.9809,17.666302,51.066598,55.249791,9.785814,10.264713,Low,9.997704318802898,Inland,Inland,,
14000000.0,9.997704316,1400321.47,muttathara,8.4638,76.9394,14.891881,55.148774,59.331967,4.17662,8.272039,Low,9.997704312853248,Inland,Inland,,
8600000.0,3.999081726,2150493.686,kumarapuram,8.5118,76.9253,11.265095,50.934787,55.11798,5.661267,4.070057,Low,3.999081725274128,Inland,Inland,,
13500000.0,8.999081726,1500153.061,anayara,8.5096,76.9168,9.945451099,52.61181266,56.7950019,4.341622156,2.750407373,Low,8.999081727701117,Inland,Lake view,,
2000000.0,5.99862259,333409.8737,ulloor,8.53,76.9289,9.111596,49.531731,53.714924,6.992217,5.401007,Low,5.998622589682473,Inland,Inland,,
2100000.0,5.99862259,350080.3674,pappanamcode,8.4697,76.9818,19.03315,53.303922,57.487115,9.705932,8.051016,Low,5.998622589425447,Inland,Inland,,
5400000.0,12.39669421,435600.0002,naruvamoodu,8.45,77.0343,25.65008559,51.49093777,55.67412702,12.1871495,7.0954625,Low,12.396694209184254,Inland,Inland,,
25200000.0,62.99357208,400040.8164,karakulam,8.5672,76.9902,16.460873,40.714745,44.897938,16.116962,14.525752,Low,62.99357207291211,Inland,Inland,,
8000000.0,9.997704316,800183.6969,kalady,8.4683,76.9629,17.53628,53.635972,57.819165,7.447503,9.930637,Low,9.99770431588757,Inland,Inland,,
1800000.0,5.0,360000.0,pallippuram,8.5943,76.8557,4.774731,54.0918,58.274993,5.128373,10.472922,Low,5.0,Inland,Inland,,
8200000.0,14.99770432,546750.3443,kannammula,8.5048,76.9312,12.174392,51.10450691,55.28769616,6.112001144,5.212514367,Low,14.997704318775314,Inland,Inland,,
1900000.0,6.473829201,293489.3617,sreekariyam,8.5468,76.9164,6.659485,49.753912,53.937105,8.572485,6.981275,Low,6.4738292011488605,Inland,Inland,,
11600000.0,13.99908173,828625.7787,kazhakkoottam,8.5686,76.8731,1.3051,54.06213,58.245323,3.089955,8.289953,Low,13.999081730475252,Inland,Inland,,
9500000.0,5.0,1900000.0,kowdiar,8.5222,76.9605,13.27826467,46.80432058,50.98750983,9.780415629,8.189200846,High,5.0,Inland,Inland,,
6600000.0,5.99862259,1100252.583,pappanamcode,8.4697,76.9818,19.03315,53.303922,57.487115,9.705932,8.051016,High,5.9986225908274005,Inland,Inland,,
1500000.0,5.980257117,250825.3359,mangalapuram,8.6242,76.8485,8.468869,54.078949,58.262142,8.822511,7.944839,Low,5.980257116442279,Inland,Inland,,
3500000.0,3.999081726,875200.9186,nemom,8.4579,76.9994,21.375005,53.082335,57.265528,10.794403,5.708785,Low,3.999081725826698,Inland,Inland,,
5500000.0,6.999540863,785765.8249,ulloor,8.53,76.9289,9.111596,49.531731,53.714924,6.992217,5.401007,Low,6.999540862826344,Inland,Inland,,
5000000.0,9.997704316,500114.8106,anthiyoorkonam,8.4901,77.0521,26.143917,45.848218,50.031411,18.237488,13.145803,Low,9.997704315137913,Inland,Inland,,
1800000.0,5.99862259,300068.8863,vattappara,8.5927,76.9499,12.137705,42.670325,46.853518,14.811417,15.145692,Low,5.998622590282197,Inland,Inland,,
1500000.0,9.997704316,150034.4432,kattakkada,8.5033,77.0852,29.967282,42.455763,46.638956,20.251251,17.19968,Low,9.99770431380519,Inland,Inland,,
3000000.0,3.000459137,999846.9778,kalady,8.4683,76.9629,17.53628,53.635972,57.819165,7.447503,9.930637,Low,3.000459136858132,Inland,Inland,,
6500000.0,5.0,1300000.0,poojappura,8.488,76.9809,17.666302,51.066598,55.249791,9.785814,10.264713,Low,5.0,Inland,Inland,,
3800000.0,5.0,760000.0,karyavattom,8.5678,76.8908,2.866703,52.08072,56.263913,5.540415,9.009202,Low,5.0,Inland,Inland,,
2700000.0,6.198347107,435600.0,manacaud,8.4719,76.9518,15.759957,53.201069,57.384262,5.722958,8.862142,Low,6.198347107438017,Inland,Inland,,
5500000.0,5.0,1100000.0,sreekariyam,8.5468,76.9164,6.659485,49.753912,53.937105,8.572485,6.981275,Low,5.0,Inland,Inland,,
1600000.0,9.997704316,160036.7394,muttada,8.5338,76.9471,11.165785,47.385297,51.56849,9.602435,8.011225,Low,9.997704314638144,Inland,Inland,,
25000000.0,50.0,500000.0,kovalam,8.3988,76.982,23.553144,62.189857,66.37305,1.251557,5.736696,Low,50.0,Sea view,Inland,,
2200000.0,1.999540863,1100252.583,vallakkadavu,8.475,76.9195,14.243906,56.705267,60.88846,1.158748,8.862686,Low,1.9995408636091327,Sea view,Inland,,
5000000.0,9.997704316,500114.8106,pappanamcode,8.4697,76.9818,19.03315,53.303922,57.487115,9.705932,8.051016,Low,9.997704315137913,Inland,Inland,,
4000000.0,7.998163453,500114.8105,kulathoor,8.3319,77.0967,40.38119,64.786367,68.96956,5.40518,19.586336,Low,7.998163453709595,Inland,Inland,,
20000000.0,9.997704316,2000459.242,karyavattom,8.5678,76.8908,2.866703,52.08072,56.263913,5.540415,9.009202,Low,9.997704317136996,Inland,Inland,,
2800000.0,7.998163453,350080.3674,vilappilsala,8.5302,77.043,24.499694,41.495555,45.678748,18.758983,17.280862,Low,7.998163452567264,Inland,Inland,,
630000.0,5.99862259,105024.1102,thiruvallam,8.4479,76.9557,18.116752,56.031606,60.214799,6.992976,10.639722,Low,5.998622590567781,Inland,Inland,,
15600000.0,12.85583104,1213457.143,ptpnagar,8.5115,76.9909,17.622995,47.816632,51.999825,12.841586,12.255513,Low,12.855831036135736,Inland,Inland,,
28000000.0,55.99173554,500073.8007,nedumangad,8.608,77.0046,20.217621,34.3255,38.508693,21.839424,20.248214,Low,55.99173554144565,Inland,Inland,,
1600000.0,8.999081726,177795.9184,eastfort,8.4845,76.9477,14.42823388,51.84592024,56.02910948,6.058074712,7.233190158,Low,8.99908172470173,Inland,Inland,,
6400000.0,7.998163453,800183.6969,kazhakkoottam,8.5686,76.8731,1.3051,54.06213,58.245323,3.089955,8.289953,Low,7.998163452710055,Inland,Inland,,
32000000.0,15.99862259,2000172.191,kudappanakunnu,8.549,76.9624,12.911424,44.62843,48.811623,12.428108,10.836898,High,15.99862259058875,Inland,Inland,,
5520000.0,23.98989899,230096.8421,venjaramoodu,8.6781,76.9096,16.182971,46.857726,51.040919,18.397158,17.042901,Low,23.989898990447728,Inland,Inland,,
530000.0,7.998163453,66265.2124,neyyattinkara,8.4027,77.0861,33.284209,54.674092,58.857285,11.435348,11.848266,Low,7.998163452653476,Inland,Inland,,
5400000.0,8.999081726,600061.2245,karakulam,8.5672,76.9902,16.460873,40.714745,44.897938,16.116962,14.525752,Low,8.999081726201423,Inland,Inland,,
57200000.0,25.98714417,2201088.339,pallichal,8.45,77.0261,24.70828712,52.43273625,56.61592549,11.24535103,6.153664026,Low,25.98714417159065,Inland,Inland,,
10000000.0,4.568411387,2188944.723,poojappura,8.488,76.9809,17.666302,51.066598,55.249791,9.785814,10.264713,Low,4.568411387883183,Inland,Inland,,
6500000.0,6.999540863,928632.3385,karikkakam,8.5033,76.9055,9.393678,54.687735,58.870928,2.939657,2.756722,Low,6.999540862963389,Sea view,Lake view,,
2700000.0,26.99724518,100010.2041,kallayam,8.577,76.9577,12.21524941,42.81776012,47.00094936,14.888964,13.88621996,Low,26.99724517410519,Inland,Inland,,
13000000.0,9.997704316,1300298.507,vattiyoorkavu,8.5242,76.9881,16.515234,46.077624,50.260817,12.939844,12.129453,Low,9.997704319443628,Inland,Inland,,
3000000.0,9.997704316,300068.8863,mangalapuram,8.6242,76.8485,8.468869,54.078949,58.262142,8.822511,7.944839,Low,9.997704317136996,Inland,Inland,,
7500000.0,5.0,1500000.0,kumarapuram,8.5118,76.9253,11.265095,50.934787,55.11798,5.661267,4.070057,Low,5.0,Inland,Inland,,
20000000.0,85.99632691,232568.0726,karakulam,8.5672,76.9902,16.460873,40.714745,44.897938,16.116962,14.525752,Low,85.9963269094057,Inland,Inland,,
11000000.0,26.99724518,407448.9796,attingal,8.6982,76.8137,18.106345,58.660363,62.843556,16.803479,11.596318,Low,26.99724517852247,Inland,Inland,,
60000000.0,34.9862259,1714960.63,nalanchira,8.5392,76.948,10.685045,46.75897,50.942163,9.964972,8.373762,Low,34.98622589371046,Inland,Inland,,
4500000.0,9.997704316,450103.3295,vattappara,8.5927,76.9499,12.137705,42.670325,46.853518,14.811417,15.145692,Low,9.997704316026391,Inland,Inland,,
1200000.0,9.997704316,120027.5545,vattiyoorkavu,8.5242,76.9881,16.515234,46.077624,50.260817,12.939844,12.129453,Low,9.997704318802896,Inland,Inland,,
1500000.0,3.999081726,375086.108,kazhakkoottam,8.5686,76.8731,1.3051,54.06213,58.245323,3.089955,8.289953,Low,3.999081725522077,Inland,Inland,,
7000000.0,5.0,1400000.0,kovalam,8.3988,76.982,23.553144,62.189857,66.37305,1.251557,5.736696,Low,5.0,Sea view,Inland,,
4600000.0,6.898530762,666808.6523,nettayam,8.5403,76.9902,16.394985,44.237913,48.421106,14.506814,12.915604,Low,6.898530761611116,Inland,Inland,,
520000.0,6.999540863,74290.58708,menamkulam,8.5587,76.8591,3.939382,56.696412,60.879605,1.250109,8.382195,Low,6.999540862963389,Sea view,Inland,,
60000000.0,25.0,2296375.5430500004,balaramapuram,8.4321,77.0503,28.722221,51.713743,55.896936,10.107014,7.286278,Low,25.0,Inland,Inland,,
18700000.0,22.61707989,826808.7698,kazhakkoottam,8.5686,76.8731,1.3051,54.06213,58.245323,3.089955,8.289953,Low,22.617079889613915,Inland,Inland,,
4000000.0,39.99081726,100022.9621,nedumangad,8.608,77.0046,20.217621,34.3255,38.508693,21.839424,20.248214,Low,39.99081726854798,Inland,Inland,,
16000000.0,30.00459137,533251.7215,karakulam,8.5672,76.9902,16.460873,40.714745,44.897938,16.116962,14.525752,Low,30.004591368206206,Inland,Inland,,
6300000.0,6.999540863,900059.0358,enikkara,8.5594,76.978,14.66787852,41.79569136,45.9788806,14.31595958,12.7247448,Low,6.999540862783926,Inland,Inland,,
10800000.0,8.999081726,1200122.449,chakka,8.4988,76.9198,10.94231073,52.73668913,56.91987838,5.355596004,3.948278567,Low,8.999081726201423,Inland,Inland,,
5500000.0,54.98163453,100033.4029,vellanad,8.5642,77.0593,25.785434,35.7125,39.895693,24.531399,22.940189,Low,54.98163453959637,Inland,Inland,,
450000.0,5.0,90000.0,enikkara,8.5594,76.978,14.66787852,41.79569136,45.9788806,14.31595958,12.7247448,Low,5.0,Inland,Inland,,
4000000.0,5.509641873,726000.0,kudappanakunnu,8.549,76.9624,12.911424,44.62843,48.811623,12.428108,10.836898,Low,5.509641873278237,Inland,Inland,,
17000000.0,9.997704316,1700390.356,kazhakkoottam,8.5686,76.8731,1.3051,54.06213,58.245323,3.089955,8.289953,Low,9.9977043153731,Inland,Inland,,
27000000.0,30.00459137,899862.28,kazhakkoottam,8.5686,76.8731,1.3051,54.06213,58.245323,3.089955,8.289953,Low,30.004591369248192,Inland,Inland,,
25000000.0,8.999081726,2296375.5430500004,udiyankulangara,8.3797,77.1212,38.14068629,59.58662069,63.76980994,11.37093353,16.70468033,Low,8.99908172470173,Inland,Inland,,
4600000.0,11.49908173,400031.9424,puliyarakonam,8.5399,77.0176,20.788535,42.973616,47.156809,17.943719,17.133328,Low,11.499081729329422,Inland,Inland,,
1400000.0,7.998163453,175040.1837,poojappura,8.488,76.9809,17.666302,51.066598,55.249791,9.785814,10.264713,Low,7.998163452567264,Inland,Inland,,
4000000.0,9.997704316,400091.8484,kazhakkoottam,8.5686,76.8731,1.3051,54.06213,58.245323,3.089955,8.289953,Low,9.997704317136996,Inland,Inland,,
8000000.0,19.99770432,400045.9189,vattappara,8.5927,76.9499,12.137705,42.670325,46.853518,14.811417,15.145692,Low,19.99770431853792,Inland,Inland,,
25000000.0,9.997704316,2296375.5430500004,neeramankara,8.4759,76.9708,17.772127,52.921529,57.104722,8.444909,10.219585,Low,9.997704315137913,Inland,Inland,,
90000000.0,32.00183655,2296375.5430500004,vellayambalam,8.5086,76.9657,14.934039,48.781893,52.965086,9.77404,9.187967,High,32.001836546997225,Inland,Inland,,
8500000.0,10.33057851,822800.0002,kuravankonam,8.5243,76.9542,12.6403,47.342422,51.525615,9.142452,7.551242,Low,10.330578509885616,Inland,Inland,,
2520000.0,6.297061524,400186.657,vembayam,8.6393,76.9369,14.280645,42.998393,47.181586,16.740271,19.355085,Low,6.297061523468035,Inland,Inland,,
3800000.0,24.79338843,153266.6667,pulayanarkotta,8.5204,76.9168,10.20903519,51.5876217,55.77081094,5.430566802,3.839352019,Low,24.79338842435985,Inland,Inland,,
4500000.0,4.483471074,1003686.636,pothencode,8.6195,76.8987,8.680096,47.789459,51.972652,11.139722,14.389154,Low,4.483471074133142,Inland,Inland,,
8250000.0,14.99770432,550084.1878,nettayam,8.5403,76.9902,16.394985,44.237913,48.421106,14.506814,12.915604,Low,14.997704320487651,Inland,Inland,,
950000.0,6.999540863,135723.1879,medicalcollege,8.5236,76.9283,9.844377,50.239953,54.423146,6.533052,4.941842,Low,6.999540864748581,Inland,Inland,,
14200000.0,8.999081726,1577938.776,attukal,8.4708,76.9571,16.34782,53.506802,57.689995,6.268606,9.450005,Low,8.999081723561117,Inland,Inland,,
2850000.0,14.99770432,190029.0831,pongumoodu,8.5393,76.9174,7.839663,50.295587,54.47878,7.969712,6.378502,High,14.997704317187226,Inland,Inland,,
7500000.0,55.99173554,133948.3395,venjaramoodu,8.6781,76.9096,16.182971,46.857726,51.040919,18.397158,17.042901,Low,55.99173553024896,Inland,Inland,,
25000000.0,11.50826446,2172351.886,karimanal,8.5254,76.8872,5.801152363,54.99028564,59.17347489,5.36770248,3.280206407,Low,11.508264458035416,Inland,Inland,,
52000000.0,51.99724518,1000052.98,kattakkada,8.5033,77.0852,29.967282,42.455763,46.638956,20.251251,17.19968,Low,51.99724518595005,Inland,Inland,,
8000000.0,7.998163453,1000229.621,trikkannapuram,8.4803,77.0003,20.391131,50.789639,54.972832,12.222736,8.649683,Low,7.998163453709595,Inland,Inland,,
4500000.0,5.0,900000.0,nemom,8.4579,76.9994,21.375005,53.082335,57.265528,10.794403,5.708785,Low,5.0,Inland,Inland,,
430000.0,6.999540863,61432.60085,venjaramoodu,8.6781,76.9096,16.182971,46.857726,51.040919,18.397158,17.042901,Low,6.999540863489259,Inland,Inland,,
12800000.0,32.00183655,399977.0444,murukkumpuzha,8.6102,76.8346,8.262442,56.569116,60.752309,7.676677,7.262022,Low,32.001836553397965,Inland,Inland,,
6000000.0,9.997704316,600137.7727,njandoorkonam,8.5843,76.9189,7.450484,47.456499,51.639692,10.124196,12.198008,Low,9.997704315471092,Inland,Inland,,
30000000.0,14.99770432,2000306.138,poojappura,8.488,76.9809,17.666302,51.066598,55.249791,9.785814,10.264713,Low,14.997704316397993,Inland,Inland,,
2760000.0,23.98989899,115048.4211,attingal,8.6982,76.8137,18.106345,58.660363,62.843556,16.803479,11.596318,Low,23.989898980021724,Inland,Inland,,
16500000.0,54.98163453,300100.2088,nedumangad,8.608,77.0046,20.217621,34.3255,38.508693,21.839424,20.248214,Low,54.98163452127528,Inland,Inland,,
47000000.0,18.99678604,2296375.5430500004,nanthancodu,8.5142,76.9563,13.313556,48.218665,52.401858,8.629231,7.700492,Low,18.99678604249576,Inland,Inland,,
24000000.0,15.99862259,1500129.143,ulloor,8.53,76.9289,9.111596,49.531731,53.714924,6.992217,5.401007,Low,15.99862259325496,Inland,Inland,,
5000000.0,9.997704316,500114.8106,vizhinjam,8.3932,77.0046,26.898654,59.525163,63.708356,4.045079,5.713554,Low,9.997704315137913,Inland,Inland,,
1000000.0,10.99862259,90920.47589,parassala,8.3431,77.1526,43.750559,65.197448,69.380641,12.427962,22.314616,Low,10.998622589809676,Inland,Inland,,
27000000.0,30.00459137,899862.28,sreekariyam,8.5468,76.9164,6.659485,49.753912,53.937105,8.572485,6.981275,Low,30.004591369248192,Inland,Inland,,
18000000.0,59.9862259,300068.8863,koliyoor,8.4147,76.9866,23.64594,60.881552,65.064745,3.065569,4.058007,Low,59.98622590282197,Inland,Inland,,
9450000.0,6.999540863,1350088.554,karamana,8.482,76.9661,16.828027,51.927718,56.110911,7.535672,9.632989,Low,6.999540861228573,Inland,Inland,,
800000.0,3.999081726,200045.9242,peyad,8.5173,77.0237,22.032659,45.040947,49.22414,15.810231,14.532601,Low,3.9990817268547976,Inland,Inland,,
19000000.0,15.99862259,1187602.238,attingal,8.6982,76.8137,18.106345,58.660363,62.843556,16.803479,11.596318,Low,15.998622596061496,Inland,Inland,,
5000000.0,9.997704316,500114.8106,vizhinjam,8.3932,77.0046,26.898654,59.525163,63.708356,4.045079,5.713554,Low,9.997704315137913,Inland,Inland,,
50000000.0,19.99770432,2296375.5430500004,kuravankonam,8.5243,76.9542,12.6403,47.342422,51.525615,9.142452,7.551242,Low,19.99770431953769,Inland,Inland,,
5500000.0,9.997704316,550126.2916,andoorkonam,8.6009,76.875,5.988115261,51.7049669,55.88815614,7.515195276,12.83018796,Low,9.99770431622832,Inland,Inland,,
70000000.0,200.0,350000.0,kazhakkoottam,8.5686,76.8731,1.3051,54.06213,58.245323,3.089955,8.289953,High,200.0,Inland,Inland,,
13000000.0,5.0,2296375.5430500004,sasthamangalam,8.513,76.9715,15.327905,47.951141,52.134334,10.167906,9.581833,Low,5.0,Inland,Inland,,
20400000.0,16.99724518,1200194.489,kazhakkoottam,8.5686,76.8731,1.3051,54.06213,58.245323,3.089955,8.289953,Low,16.997245185650907,Inland,Inland,,
9100000.0,7.5,1213333.333,peroorkada,8.5376,76.9666,13.216524,44.763425,48.946618,11.353845,9.762635,Low,7.500000002060439,Inland,Inland,,
3900000.0,5.0,780000.0,kazhakkoottam,8.5686,76.8731,1.3051,54.06213,58.245323,3.089955,8.289953,Low,5.0,Inland,Inland,,
4500000.0,5.0,900000.0,anayara,8.5096,76.9168,9.945451099,52.61181266,56.7950019,4.341622156,2.750407373,Low,5.0,Inland,Lake view,,
13200000.0,10.99862259,1200150.282,thirumala,8.5041,76.9917,18.7736,48.798465,52.981658,11.666181,11.668466,Low,10.998622587500256,Inland,Inland,,
850000.0,1.000918274,849220.1832,mukkola,8.5466,76.9863,15.885294,43.543801,47.726994,14.2455,12.65429,Low,1.0009182739829163,Inland,Inland,,
3000000.0,5.99862259,500114.8105,pappanamcode,8.4697,76.9818,19.03315,53.303922,57.487115,9.705932,8.051016,Low,5.998622590282197,Inland,Inland,,
3600000.0,2.998163453,1200735.069,anayara,8.5096,76.9168,9.945451099,52.61181266,56.7950019,4.341622156,2.750407373,Low,2.998163452490951,Inland,Lake view,,
3830000.0,16.99724518,225330.6321,vellanad,8.5642,77.0593,25.785434,35.7125,39.895693,24.531399,22.940189,Low,16.997245178366498,Inland,Inland,,
3380000.0,5.0,676000.0,kudappanakunnu,8.549,76.9624,12.911424,44.62843,48.811623,12.428108,10.836898,Low,5.0,Inland,Inland,,
390000.0,5.99862259,65014.92537,thachottukavu,8.5077,77.0266,22.19774129,45.70642417,49.88961341,15.83652841,13.0884746,Low,5.998622589820871,Inland,Inland,,
5000000.0,5.0,1000000.0,nalanchira,8.5392,76.948,10.685045,46.75897,50.942163,9.964972,8.373762,Low,5.0,Inland,Inland,,
8000000.0,19.99770432,400045.9189,kovalam,8.3988,76.982,23.553144,62.189857,66.37305,1.251557,5.736696,Low,19.99770431853792,Sea view,Inland,,
11200000.0,6.999540863,1600104.952,kesavadasapuram,8.5297,76.9384,10.113221,48.454074,52.637267,8.046797,6.455587,Low,6.999540865116953,Inland,Inland,,
4500000.0,10.0,450000.0,malayinkeezh,8.4902,77.0361,24.337032,47.113524,51.296717,16.808597,11.716912,Low,10.0,Inland,Inland,,
1850000.0,3.999081726,462606.1998,thachottukavu,8.5077,77.0266,22.19774129,45.70642417,49.88961341,15.83652841,13.0884746,Low,3.999081726098389,Inland,Inland,,
30000000.0,18.99678604,1579214.502,nemom,8.4579,76.9994,21.375005,53.082335,57.265528,10.794403,5.708785,Low,18.99678603635316,Inland,Inland,,
22000000.0,15.99862259,1375118.381,chempazhanthy,8.5685,76.911,5.671593,49.194384,53.377577,8.345305,9.877435,Low,15.99862259422449,Inland,Inland,,
15000000.0,200.0,75000.0,kallikkad,8.5328,77.1241,35.539377,41.107867,45.29106,26.904302,23.668096,Low,200.0,Inland,Inland,,
20000000.0,79.98163453,250057.4053,ooruttambalam,8.4567,77.0593,29.431308,48.697702,52.880895,13.542168,10.430145,Low,79.9816345211033,Inland,Inland,,
2700000.0,25.0,108000.0,kowdiar,8.5222,76.9605,13.27826467,46.80432058,50.98750983,9.780415629,8.189200846,High,25.0,Inland,Inland,,
4860000.0,5.417814509,897040.6779,ambalamukku,8.5319,76.9601,12.48052,45.839985,50.023178,10.270265,8.679055,Low,5.417814509122831,Inland,Inland,,
6000000.0,3.999081726,1500344.432,kazhakkoottam,8.5686,76.8731,1.3051,54.06213,58.245323,3.089955,8.289953,Low,3.999081725522077,Inland,Inland,,
8800000.0,5.0,1760000.0,pallichal,8.45,77.0261,24.70828712,52.43273625,56.61592549,11.24535103,6.153664026,Low,5.0,Inland,Inland,,
9000000.0,19.97245179,450620.6897,kulasekharam,8.5234,77.0061,19.250056,45.812396,49.995589,14.881053,14.82385,Low,19.97245178864676,Inland,Inland,,
15700000.0,62.99357208,249231.7784,vizhinjam,8.3932,77.0046,26.898654,59.525163,63.708356,4.045079,5.713554,High,62.99357209096575,Inland,Inland,,
6000000.0,14.99770432,400061.2275,anad,8.6335,77.0111,23.401113,32.111509,36.294702,25.022916,23.431706,Low,14.997704320146848,Inland,Inland,,
360000.0,5.99862259,60013.77726,attingal,8.6982,76.8137,18.106345,58.660363,62.843556,16.803479,11.596318,Low,5.998622590282197,Inland,Inland,,
5800000.0,7.998163453,725166.4753,sreekariyam,8.5468,76.9164,6.659485,49.753912,53.937105,8.572485,6.981275,Low,7.998163452882389,Inland,Inland,,
4500000.0,4.522497704,995025.3808,thirumala,8.5041,76.9917,18.7736,48.798465,52.981658,11.666181,11.668466,Low,4.522497703909826,Inland,Inland,,
4500000.0,3.999081726,1125258.324,vanchiyoor,8.4943,76.9398,13.25695954,51.32116905,55.5043583,5.875829928,6.061915811,Low,3.999081725522077,Inland,Inland,,
21000000.0,59.9862259,350080.3674,ooruttambalam,8.4567,77.0593,29.431308,48.697702,52.880895,13.542168,10.430145,Low,59.98622589425448,Inland,Inland,,
3250000.0,5.0,650000.0,vattiyoorkavu,8.5242,76.9881,16.515234,46.077624,50.260817,12.939844,12.129453,Low,5.0,Inland,Inland,,
7500000.0,9.997704316,750172.2158,karumam,8.4526,76.9774,20.08405,55.863934,60.047127,7.543728,7.76143,Low,9.997704316470632,Inland,Inland,,
650000.0,5.0,130000.0,sreekariyam,8.5468,76.9164,6.659485,49.753912,53.937105,8.572485,6.981275,Low,5.0,Inland,Inland,,
13200000.0,5.0,2296375.5430500004,statue,8.4967,76.9506,14.660543,50.602151,54.785344,7.404886,7.590975,Low,5.0,Inland,Inland,,
12500000.0,5.739210285,2178000.0,murinjapalam,8.5162,76.9319,11.094788,50.327682,54.510875,6.259731,4.668521,Low,5.73921028466483,Inland,Inland,,
11400000.0,8.999081726,1266795.918,sreekariyam,8.5468,76.9164,6.659485,49.753912,53.937105,8.572485,6.981275,Low,8.999081728964017,Inland,Inland,,
2900000.0,5.99862259,483444.3168,pidaram,8.5032,77.0226,21.97868897,46.43791037,50.62109961,15.26320581,12.515152,Low,5.998622590488999,Inland,Inland,,
40500000.0,22.2405877,1820995.045,nemom,8.4579,76.9994,21.375005,53.082335,57.265528,10.794403,5.708785,Low,22.24058770022628,Inland,Inland,,
3000000.0,3.999081726,750172.2159,parassala,8.3431,77.1526,43.750559,65.197448,69.380641,12.427962,22.314616,Low,3.999081726055165,Inland,Inland,,
550000.0,5.0,110000.0,pothencode,8.6195,76.8987,8.680096,47.789459,51.972652,11.139722,14.389154,Low,5.0,Inland,Inland,,
4900000.0,6.999540863,700045.9167,powdikonam,8.5731,76.9261,7.703057,46.78539,50.968583,10.376769,10.711044,Low,6.999540863117216,Inland,Inland,,
1200000.0,5.0,240000.0,kaimanam,8.4741,76.9773,18.543781,53.693183,57.876376,9.216563,8.806839,Low,5.0,Inland,Inland,,
2100000.0,19.99770432,105012.0537,kowdiar,8.5222,76.9605,13.27826467,46.80432058,50.98750983,9.780415629,8.189200846,Low,19.997704320680285,Inland,Inland,,
1500000.0,9.997704316,150034.4432,chirayinkeezhu,8.6559,76.7832,17.625025,63.593848,67.777041,13.807769,6.636703,Low,9.99770431380519,Inland,Inland,,
3250000.0,5.0,650000.0,pangappara,8.5587,76.898,4.164973,51.468139,55.651332,6.838685,8.480528,Low,5.0,Inland,Inland,,
9000000.0,5.99862259,1500344.432,kaimanam,8.4741,76.9773,18.543781,53.693183,57.876376,9.216563,8.806839,Low,5.998622588283115,Inland,Inland,,
80000000.0,26.99724518,2296375.5430500004,pongumoodu,8.5393,76.9174,7.839663,50.295587,54.47878,7.969712,6.378502,Low,26.99724518017895,Inland,Inland,,
12900000.0,166.4600551,77496.06951,kilimanoor,8.7701,76.8808,27.545897,50.600084,53.265339,23.867769,23.2107,Low,166.4600550913798,Inland,Inland,,
12000000.0,19.99770432,600068.8783,attukal,8.4708,76.9571,16.34782,53.506802,57.689995,6.268606,9.450005,Low,19.997704320204203,Inland,Inland,,
4800000.0,48.00275482,99994.26112,attingal,8.6982,76.8137,18.106345,58.660363,62.843556,16.803479,11.596318,Low,48.002754820495845,Inland,Inland,,
12000000.0,10.99862259,1091045.711,pappanamcode,8.4697,76.9818,19.03315,53.303922,57.487115,9.705932,8.051016,Low,10.99862258658382,Inland,Inland,,
6500000.0,28.99449036,224180.5226,chirayinkeezhu,8.6559,76.7832,17.625025,63.593848,67.777041,13.807769,6.636703,High,28.994490353641453,Inland,Inland,,
5600000.0,13.99908173,400026.238,vattappara,8.5927,76.9499,12.137705,42.670325,46.853518,14.811417,15.145692,Low,13.999081730233906,Inland,Inland,,
1000000.0,3.999081726,250057.4053,ulloor,8.53,76.9289,9.111596,49.531731,53.714924,6.992217,5.401007,Low,3.9990817260551648,Inland,Inland,,
11300000.0,112.9935721,100005.6887,vilappilsala,8.5302,77.043,24.499694,41.495555,45.678748,18.758983,17.280862,Low,112.99357213466196,Inland,Inland,,
980000.0,5.0,196000.0,thonnakkal,8.6359,76.8462,9.776158283,54.90831158,59.09150083,10.12979713,7.212704055,Low,5.0,Inland,Inland,,
6600000.0,21.99724518,300037.5704,pothencode,8.6195,76.8987,8.680096,47.789459,51.972652,11.139722,14.389154,Low,21.997245182332005,Inland,Inland,,
11500000.0,6.999540863,1642964.907,palkulangara,8.4861,76.9341,12.7627562,52.73770314,56.92089239,5.291760547,5.883858694,Low,6.99954086116095,Inland,Inland,,
4750000.0,4.669421488,1017256.637,manvila,8.5438,76.8937,5.363685714,52.44994013,56.63312937,6.459619669,5.356686357,Low,4.669421488375111,Inland,Inland,,
5000000.0,9.997704316,500114.8106,naruvamoodu,8.45,77.0343,25.65008559,51.49093777,55.67412702,12.1871495,7.0954625,Low,9.997704315137913,Inland,Inland,,
4200000.0,6.999540863,600039.3572,punnamoodu,8.4321,77.0241,25.46686339,55.01303322,59.19622246,8.38014864,3.763425096,Low,6.999540862783926,Inland,Inland,,
4500000.0,19.99770432,225025.8294,kurupuzha,8.6606,77.0269,27.81306789,29.50083645,33.68402569,29.43487333,27.84365855,Low,19.99770431687164,Inland,Inland,,
12000000.0,8.999081726,1333469.388,technopark,8.5581,76.8816,2.724974884,53.80764552,57.99083477,5.398689473,7.571957401,High,8.99908172470173,Inland,Inland,,
18100000.0,32.98898072,548668.0584,judgekunnu,8.4501,76.9621,21.10185891,57.59240755,61.77559679,7.620108654,10.38099695,Low,32.98898071956725,Inland,Inland,,
25000000.0,52.98438935,471837.0884,kovalam,8.3988,76.982,23.553144,62.189857,66.37305,1.251557,5.736696,Low,52.98438934670232,Sea view,Inland,,
13500000.0,6.999540863,1928697.934,peroorkada,8.5376,76.9666,13.216524,44.763425,48.946618,11.353845,9.762635,Low,6.999540862265476,Inland,Inland,,
6500000.0,9.997704316,650149.2537,pallippuram,8.5943,76.8557,4.774731,54.0918,58.274993,5.128373,10.472922,Low,9.997704316368116,Inland,Inland,,
12900000.0,10.99862259,1172874.139,peroorkada,8.5376,76.9666,13.216524,44.763425,48.946618,11.353845,9.762635,Low,10.998622589631504,Inland,Inland,,
1850000.0,1.999540863,925212.3996,ambalathara,8.4546,76.9542,17.334053,55.457479,59.640672,6.445303,10.714211,Low,1.9995408630491944,Inland,Inland,,
2750000.0,5.0,550000.0,malayinkeezh,8.4902,77.0361,24.337032,47.113524,51.296717,16.808597,11.716912,Low,5.0,Inland,Inland,,
6000000.0,6.997245179,857480.315,nalanchira,8.5392,76.948,10.685045,46.75897,50.942163,9.964972,8.373762,Low,6.997245178742092,Inland,Inland,,
3380000.0,44.99540863,75118.77551,powdikonam,8.5731,76.9261,7.703057,46.78539,50.968583,10.376769,10.711044,Low,44.995408631894506,Inland,Inland,,
500000.0,5.0,100000.0,powdikonam,8.5731,76.9261,7.703057,46.78539,50.968583,10.376769,10.711044,Low,5.0,Inland,Inland,,
37200000.0,30.99173554,1200320.0,pipinmoodu,8.5216,76.9708,14.420745,46.791564,50.974757,11.377576,10.111304,Low,30.99173553719008,Inland,Inland,,
500000.0,5.99862259,83352.46842,thirumala,8.5041,76.9917,18.7736,48.798465,52.981658,11.666181,11.668466,Low,5.998622590042307,Inland,Inland,,
1400000.0,5.0,280000.0,pettah,8.495,76.9294,11.817389,52.023666,56.206859,4.436262,4.622351,High,5.0,Inland,Inland,,
4000000.0,5.0,800000.0,thirumala,8.5041,76.9917,18.7736,48.798465,52.981658,11.666181,11.668466,Low,5.0,Inland,Inland,,
4250000.0,5.0,850000.0,vattiyoorkavu,8.5242,76.9881,16.515234,46.077624,50.260817,12.939844,12.129453,Low,5.0,Inland,Inland,,
5500000.0,5.0,1100000.0,peroorkada,8.5376,76.9666,13.216524,44.763425,48.946618,11.353845,9.762635,Low,5.0,Inland,Inland,,
4200000.0,5.0,840000.0,kazhakkoottam,8.5686,76.8731,1.3051,54.06213,58.245323,3.089955,8.289953,Low,5.0,Inland,Inland,,
3750000.0,5.0,750000.0,ulloor,8.53,76.9289,9.111596,49.531731,53.714924,6.992217,5.401007,Low,5.0,Inland,Inland,,
3500000.0,3.999081726,875200.9186,kazhakkoottam,8.5686,76.8731,1.3051,54.06213,58.245323,3.089955,8.289953,Low,3.999081725826698,Inland,Inland,,
1800000.0,14.99770432,120018.3683,karikkakam,8.5033,76.9055,9.393678,54.687735,58.870928,2.939657,2.756722,Low,14.997704313898758,Sea view,Lake view,,
4100000.0,5.748393021,713242.8115,thirumala,8.5041,76.9917,18.7736,48.798465,52.981658,11.666181,11.668466,Low,5.748393021133169,Inland,Inland,,
10500000.0,6.999540863,1500098.393,pattom,8.5207,76.9423,11.838466,48.973988,53.157181,7.873973,6.282763,Low,6.999540862783926,Inland,Inland,,
3360000.0,3.000459137,1119828.615,karamana,8.482,76.9661,16.828027,51.927718,56.110911,7.535672,9.632989,Low,3.000459137222529,Inland,Inland,,
3500000.0,5.0,700000.0,kazhakkoottam,8.5686,76.8731,1.3051,54.06213,58.245323,3.089955,8.289953,Low,5.0,Inland,Inland,,
950000.0,7.998163453,118777.2675,kazhakkoottam,8.5686,76.8731,1.3051,54.06213,58.245323,3.089955,8.289953,Low,7.998163453288736,Inland,Inland,,
800000.0,5.0,160000.0,mannanthala,8.5616,76.9427,9.841727,45.625621,49.808814,11.934242,10.343032,Low,5.0,Inland,Inland,,
9500000.0,5.99862259,1583696.9,ulloor,8.53,76.9289,9.111596,49.531731,53.714924,6.992217,5.401007,High,5.998622589966553,Inland,Inland,,
4000000.0,8.999081726,444489.7959,pravachambalam,8.4494,77.0115,23.16121,54.077387,58.26058,9.69703,4.605345,Low,8.999081726726317,Inland,Inland,,
11500000.0,4.997704316,2296375.5430500004,sreevaraham,8.4776,76.942,14.170828,53.174086,57.357279,5.036668,7.29075,Low,4.997704315387302,Inland,Inland,,
37800000.0,20.99632691,1800314.891,muttada,8.5338,76.9471,11.165785,47.385297,51.56849,9.602435,8.011225,Low,20.99632691423425,Inland,Inland,,
8000000.0,50.0,160000.0,pothencode,8.6195,76.8987,8.680096,47.789459,51.972652,11.139722,14.389154,Low,50.0,Inland,Inland,,
6000000.0,3.999081726,1500344.432,eanchakkal,8.4832,76.9283,12.376686,53.793431,57.976624,4.90569,5.756844,Low,3.999081725522077,Inland,Inland,,
7000000.0,13.99908173,500032.7975,chirayinkeezhu,8.6559,76.7832,17.625025,63.593848,67.777041,13.807769,6.636703,Low,13.999081730233906,Inland,Inland,,
3500000.0,41.98806244,83357.0257,nemom,8.4579,76.9994,21.375005,53.082335,57.265528,10.794403,5.708785,Low,41.98806244114826,Inland,Inland,,
5500000.0,19.99770432,275031.5692,thonnakkal,8.6359,76.8462,9.776158283,54.90831158,59.09150083,10.12979713,7.212704055,Low,19.99770432171901,Inland,Inland,,
7500000.0,5.0,1500000.0,kumarapuram,8.5118,76.9253,11.265095,50.934787,55.11798,5.661267,4.070057,Low,5.0,Inland,Inland,,
950000.0,6.999540863,135723.1879,medicalcollege,8.5236,76.9283,9.844377,50.239953,54.423146,6.533052,4.941842,Low,6.999540864748581,Inland,Inland,,
11500000.0,4.997704316,2296375.5430500004,sreevaraham,8.4776,76.942,14.170828,53.174086,57.357279,5.036668,7.29075,Low,4.997704315387302,Inland,Inland,,
4500000.0,5.0,900000.0,chempazhanthy,8.5685,76.911,5.671593,49.194384,53.377577,8.345305,9.877435,Low,5.0,Inland,Inland,,
56000000.0,28.00734619,1999475.41,pongumoodu,8.5393,76.9174,7.839663,50.295587,54.47878,7.969712,6.378502,High,28.007346186868087,Inland,Inland,,
11500000.0,4.997704316,2296375.5430500004,sreevaraham,8.4776,76.942,14.170828,53.174086,57.357279,5.036668,7.29075,Low,4.997704315387302,Inland,Inland,,
3730000.0,5.0,746000.0,mannanthala,8.5616,76.9427,9.841727,45.625621,49.808814,11.934242,10.343032,Low,5.0,Inland,Inland,,
7500000.0,9.997704316,750172.2158,chittazha,8.5803,76.9456,10.70382784,44.020858,48.20404724,13.37754243,12.73452726,Low,9.997704316470632,Inland,Inland,,
7500000.0,3.000459137,2296375.5430500004,sreevaraham,8.4776,76.942,14.170828,53.174086,57.357279,5.036668,7.29075,Low,3.000459137458316,Inland,Inland,,
7500000.0,9.997704316,750172.2158,chittazha,8.5803,76.9456,10.70382784,44.020858,48.20404724,13.37754243,12.73452726,Low,9.997704316470632,Inland,Inland,,
7500000.0,5.0,1500000.0,kazhakkoottam,8.5686,76.8731,1.3051,54.06213,58.245323,3.089955,8.289953,High,5.0,Inland,Inland,,
11000000.0,9.997704316,1100252.583,mukkola,8.5466,76.9863,15.885294,43.543801,47.726994,14.2455,12.65429,High,9.997704318045669,Inland,Inland,,
4800000.0,3.000459137,1599755.164,muttada,8.5338,76.9471,11.165785,47.385297,51.56849,9.602435,8.011225,Low,3.000459137758408,Inland,Inland,,
8000000.0,50.0,160000.0,pothencode,8.6195,76.8987,8.680096,47.789459,51.972652,11.139722,14.389154,Low,50.0,Inland,Inland,,
8000000.0,4.003673095,1998165.137,kumarapuram,8.5118,76.9253,11.265095,50.934787,55.11798,5.661267,4.070057,Low,4.003673095813802,Inland,Inland,,
19300000.0,16.99724518,1135478.12,vettamukku,8.5066,76.9858,17.774202,48.59153,52.774723,11.832711,12.02813,Low,16.997245178092907,Inland,Inland,,
10600000.0,8.999081726,1177897.959,vattiyoorkavu,8.5242,76.9881,16.515234,46.077624,50.260817,12.939844,12.129453,Low,8.99908172775771,Inland,Inland,,
4625000.0,5.0,925000.0,kazhakkoottam,8.5686,76.8731,1.3051,54.06213,58.245323,3.089955,8.289953,Low,5.0,Inland,Inland,,
10800000.0,8.32,1298076.923,maruthoorkadavu,8.459,76.9672,18.631965,55.087651,59.270844,8.168288,9.812209,Low,8.320000000493037,Inland,Inland,,
6000000.0,4.0,1500000.0,poojappura,8.488,76.9809,17.666302,51.066598,55.249791,9.785814,10.264713,Low,4.0,Inland,Inland,,
8400000.0,6.0,1400000.0,kaimanam,8.4741,76.9773,18.543781,53.693183,57.876376,9.216563,8.806839,Low,6.0,Inland,Inland,,
8000000.0,10.0,800000.0,santhivila,8.4527,76.9996,22.093952,53.826668,58.009861,10.407792,5.316107,Low,10.0,Inland,Inland,,
15000000.0,20.0,750000.0,madavooppara,8.591,76.9051,6.914274,49.843367,54.02656,9.587986,13.014628,Low,20.0,Inland,Inland,,
3800000.0,5.0,760000.0,vattiyoorkavu,8.5242,76.9881,16.515234,46.077624,50.260817,12.939844,12.129453,High,5.0,Inland,Inland,,
2200000.0,27.0,81481.48148,vellanad,8.5642,77.0593,25.785434,35.7125,39.895693,24.531399,22.940189,Low,27.000000000490907,Inland,Inland,,
10500000.0,35.0,300000.0,puthukurichy,8.603,76.8188,9.533561,60.118109,64.301302,5.940703,9.449691,Low,35.0,Inland,Inland,,
10000000.0,20.0,500000.0,kazhakkoottam,8.5686,76.8731,1.3051,54.06213,58.245323,3.089955,8.289953,Low,20.0,Inland,Inland,,
2700000.0,4.0,675000.0,nettayam,8.5403,76.9902,16.394985,44.237913,48.421106,14.506814,12.915604,Low,4.0,Inland,Inland,,
2500000.0,2.5,1000000.0,maruthoorkadavu,8.459,76.9672,18.631965,55.087651,59.270844,8.168288,9.812209,Low,2.5,Inland,Inland,,
3000000.0,5.65,530973.4513,mangalapuram,8.6242,76.8485,8.468869,54.078949,58.262142,8.822511,7.944839,Low,5.650000000291917,Inland,Inland,,
10800000.0,18.0,600000.0,vellarada,8.4497,77.1957,45.870512,55.487679,59.670872,26.450605,28.426036,Low,18.0,Inland,Inland,,
4000000.0,5.0,800000.0,chavadimukku,8.5514,76.9106,5.661889,50.200979,54.384172,8.335601,7.268137,Low,5.0,Inland,Inland,,
7000000.0,10.0,700000.0,cheeranikkara,8.6405,76.9581,17.267127,40.541789,44.724982,19.85278,21.911608,Low,10.0,Inland,Inland,,
4500000.0,5.0,900000.0,mangattukonam,8.5921,76.8937,5.847951,51.056459,55.239652,8.521663,12.06546,Low,5.0,Inland,Inland,,
16800000.0,12.0,1400000.0,vayalikada,8.5331,77.0008,17.769525,44.710853,48.894046,14.924709,14.114318,Low,12.0,Inland,Inland,,
1600000.0,10.0,160000.0,murinjapalam,8.5162,76.9319,11.094788,50.327682,54.510875,6.259731,4.668521,Low,10.0,Inland,Inland,,
12000000.0,11.4,1052631.579,pappanamcode,8.4697,76.9818,19.03315,53.303922,57.487115,9.705932,8.051016,Low,11.39999999943,Inland,Inland,,
5510000.0,7.7,715584.4156,alathara,8.5326,76.8983,6.901241,53.108384,57.291577,6.638185,4.550691,High,7.699999999832306,Inland,Inland,,
5000000.0,4.25,1176470.588,nettayam,8.5403,76.9902,16.394985,44.237913,48.421106,14.506814,12.915604,Low,4.25000000085,Inland,Inland,,
17100000.0,38.0,450000.0,powdikonam,8.5731,76.9261,7.703057,46.78539,50.968583,10.376769,10.711044,Low,38.0,Inland,Inland,,
6800000.0,17.0,400000.0,vellanad,8.5642,77.0593,25.785434,35.7125,39.895693,24.531399,22.940189,Low,17.0,Inland,Inland,,
3500000.0,15.0,233333.3333,mangatumoola transformer junction,8.6692,76.8507,14.616003,55.428128,59.611321,14.969645,10.073067,Low,15.000000002142857,Inland,Inland,,
7500000.0,15.0,500000.0,kazhakkoottam,8.5686,76.8731,1.3051,54.06213,58.245323,3.089955,8.289953,Low,15.0,Inland,Inland,,
5400000.0,9.4,574468.0851,karakulam,8.5672,76.9902,16.460873,40.714745,44.897938,16.116962,14.525752,Low,9.400000000104445,Inland,Inland,,
6000000.0,21.0,285714.2857,vellanad,8.5642,77.0593,25.785434,35.7125,39.895693,24.531399,22.940189,Low,21.00000000105,Inland,Inland,,
22000000.0,11.5,1913043.478,microwave lane pongumoodu,8.5383,76.9197,7.945104,50.065515,54.248708,7.925708,6.334498,Low,11.500000001568182,Inland,Inland,,
24700000.0,16.0,1543750.0,murinjapalam,8.5162,76.9319,11.094788,50.327682,54.510875,6.259731,4.668521,Low,16.0,Inland,Inland,,
1300000.0,15.0,86666.66667,chempazhanthy,8.5685,76.911,5.671593,49.194384,53.377577,8.345305,9.877435,Low,14.999999999423077,Inland,Inland,,
11300000.0,6.15,1837398.374,nanthancodu,8.5142,76.9563,13.313556,48.218665,52.401858,8.629231,7.700492,Low,6.149999999945575,Inland,Inland,,
25900000.0,28.0,925000.0,mannanthala,8.5616,76.9427,9.841727,45.625621,49.808814,11.934242,10.343032,Low,28.0,Inland,Inland,,
28200000.0,46.0,613043.4783,kaniyapuram,8.5844,76.8503,4.769451,55.768939,59.952132,3.451234,11.161453,Low,45.99999999706383,Inland,Inland,,
12000000.0,10.0,1200000.0,vattiyoorkavu,8.5241,76.9882,16.537754,46.100144,50.283337,12.962364,12.151973,Low,10.0,Inland,Inland,,
4500000.0,8.0,562500.0,kaniyapuram,8.5844,76.8503,4.769451,55.768939,59.952132,3.451234,11.161453,Low,8.0,Inland,Inland,,
5300000.0,6.25,848000.0,karyavattom,8.5678,76.8908,2.866703,52.08072,56.263913,5.540415,9.009202,Low,6.25,Inland,Inland,,
18000000.0,9.0,2000000.0,medical college,8.5236,76.9283,9.844377,50.239953,54.423146,6.533052,4.941842,Low,9.0,Inland,Inland,,
700000.0,5.0,140000.0,kalady,8.4683,76.9629,17.53628,53.635972,57.819165,7.447503,9.930637,Low,5.0,Inland,Inland,,
14100000.0,9.15,1540983.607,muttathara,8.4638,76.9394,14.891881,55.148774,59.331967,4.17662,8.272039,Low,9.149999997371808,Inland,Inland,,
26400000.0,44.0,600000.0,chittattumukku,8.5745,76.8505,4.500213,56.104487,60.28768,3.060412,10.280251,Low,44.0,Inland,Inland,,
3150000.0,7.0,450000.0,mangalapuram,8.6242,76.8485,8.468869,54.078949,58.262142,8.822511,7.944839,Low,7.0,Inland,Inland,,
4900000.0,5.0,980000.0,kazhakkoottam,8.5686,76.8731,1.3051,54.06213,58.245323,3.089955,8.289953,Low,5.0,Inland,Inland,,
42000000.0,16.2,2296375.5430500004,sasthamangalam,8.513,76.9715,15.327905,47.951141,52.134334,10.167906,9.581833,Low,16.199999997454288,Inland,Inland,,
7200000.0,12.0,600000.0,menamkulam,8.5587,76.8591,3.939382,56.696412,60.879605,1.250109,8.382195,Low,12.0,Sea view,Inland,,
1200000.0,11.0,109090.9091,marayamuttom,8.4165,77.1082,36.100454,55.447474,59.630667,14.522803,15.175828,Low,10.999999999083332,Inland,Inland,,
19500000.0,155.0,125806.4516,vattappara,8.5927,76.9499,12.137705,42.670325,46.853518,14.811417,15.145692,Low,155.00000001589743,Inland,Inland,,
7000000.0,20.0,350000.0,kovalam,8.3988,76.982,23.553144,62.189857,66.37305,1.251557,5.736696,Low,20.0,Sea view,Inland,,
25000000.0,95.0,263157.8947,neyyattinkara,8.4027,77.0861,33.284209,54.674092,58.857285,11.435348,11.848266,Low,95.0000000133,Inland,Inland,,
4000000.0,31.0,129032.2581,kilimanoor,8.7701,76.8808,27.545897,50.600084,53.265339,23.867769,23.2107,Low,30.999999991475,Inland,Inland,,
1200000.0,2.3,521739.1304,vattappara,8.5927,76.9499,12.137705,42.670325,46.853518,14.811417,15.145692,High,2.300000000153333,Inland,Inland,,
12600000.0,7.0,1800000.0,manacaud,8.4719,76.9518,15.759957,53.201069,57.384262,5.722958,8.862142,Low,7.0,Inland,Inland,,
1050000.0,11.74,89437.81942,kudappanakunnu,8.549,76.9624,12.911424,44.62843,48.811623,12.428108,10.836898,Low,11.740000000102864,Inland,Inland,,
17600000.0,8.0,2200000.0,kuravankonam,8.5243,76.9542,12.6403,47.342422,51.525615,9.142452,7.551242,Low,8.0,Inland,Inland,,
4800000.0,4.88,983606.5574,thirumala,8.5041,76.9917,18.7736,48.798465,52.981658,11.666181,11.668466,Low,4.879999999886133,Inland,Inland,,
4000000.0,11.3,353982.3009,peyad,8.5173,77.0237,22.032659,45.040947,49.22414,15.810231,14.532601,Low,11.29999999951975,Inland,Inland,,
3500000.0,4.46,784753.3632,poojappura,8.488,76.9809,17.666302,51.066598,55.249791,9.785814,10.264713,Low,4.460000000163109,Inland,Inland,,
6630000.0,8.84,750000.0,kazhakkoottam,8.5686,76.8731,1.3051,54.06213,58.245323,3.089955,8.289953,Low,8.84,Inland,Inland,,
14400000.0,125.0,115200.0,kattakkada,8.5033,77.0852,29.967282,42.455763,46.638956,20.251251,17.19968,Low,125.0,Inland,Inland,,
750000.0,10.0,75000.0,kazhakkoottam,8.5686,76.8731,1.3051,54.06213,58.245323,3.089955,8.289953,Low,10.0,Inland,Inland,,
6500000.0,23.63,275074.0584,karakonam,8.3906,77.1686,44.352106,60.405938,64.589131,18.305709,23.188205,Low,23.630000000029085,Inland,Inland,,
6300000.0,6.0,1050000.0,intimate agastya kazhakootam,8.583,76.868,3.387683,53.872175,58.055368,5.354756,10.372536,Low,6.0,Inland,Inland,,
6000000.0,8.0,750000.0,pappanamcode,8.4697,76.9818,19.03315,53.303922,57.487115,9.705932,8.051016,Low,8.0,Inland,Inland,,
5225000.0,9.5,550000.0,puthenthope,8.5767,76.8361,6.509575,58.038487,62.22168,2.118422,11.842029,Low,9.5,Sea view,Inland,,
1000000.0,4.5,222222.2222,anathalavattom,8.666,76.7755,19.666578,65.839238,70.022431,13.356296,8.882093,Low,4.50000000045,Inland,Inland,,
14000000.0,14.0,1000000.0,kulathoor,8.3319,77.0967,40.38119,64.786367,68.96956,5.40518,19.586336,Low,14.0,Inland,Inland,,
51200000.0,64.0,800000.0,venganoor,8.4051,77.0056,26.741916,58.974826,63.158019,4.622647,4.105535,Low,64.0,Inland,Inland,,
9800000.0,30.0,326666.6667,neyyattinkara,8.4027,77.0861,33.284209,54.674092,58.857285,11.435348,11.848266,Low,29.999999996938776,Inland,Inland,,
30000000.0,20.0,1500000.0,bhagathsing road,8.4992,76.9277,11.599439,51.64638,55.829573,5.199368,4.404401,Low,20.0,Inland,Inland,,
8000000.0,16.0,500000.0,uchakkada,8.3146,77.0982,41.178146,67.168846,71.352039,3.113329,20.562065,Low,16.0,Inland,Inland,,
7200000.0,16.0,450000.0,balaramapuram,8.4321,77.0503,28.722221,51.713743,55.896936,10.107014,7.286278,Low,16.0,Inland,Inland,,
11200000.0,7.0,1600000.0,vattiyoorkavu,8.5241,76.9882,16.537754,46.100144,50.283337,12.962364,12.151973,Low,7.0,Inland,Inland,,
20000000.0,8.0,2296375.5430500004,veli,8.5172,76.8829,7.191318,56.797425,60.980618,0.92903,4.866412,High,8.0,Beachfront,Inland,,
13100000.0,9.33,1404072.883,ulloor,8.53,76.9289,9.111596,49.531731,53.714924,6.992217,5.401007,Low,9.330000001146663,Inland,Inland,,
9050000.0,20.0,452500.0,malayinkeezh,8.4902,77.0361,24.337032,47.113524,51.296717,16.808597,11.716912,Low,20.0,Inland,Inland,,
8000000.0,50.0,160000.0,nagaroor,8.7358,76.8476,25.278853,54.85802,58.18187,19.50823,19.581245,Low,50.0,Inland,Inland,,
3000000.0,4.0,750000.0,kunnapuzha,8.4912,76.9963,19.593986,49.915616,54.098809,11.672219,9.947392,Low,4.0,Inland,Inland,,
4000000.0,5.0,800000.0,kazhakkoottam,8.5686,76.8731,1.3051,54.06213,58.245323,3.089955,8.289953,Low,5.0,Inland,Inland,,
7800000.0,8.0,975000.0,kilimanoor,8.7701,76.8808,27.545897,50.600084,53.265339,23.867769,23.2107,Low,8.0,Inland,Inland,,
7000000.0,20.0,350000.0,chirayinkeezhu,8.6559,76.7832,17.625025,63.593848,67.777041,13.807769,6.636703,Low,20.0,Inland,Inland,,
9800000.0,28.0,350000.0,nedumangad,8.608,77.0046,20.217621,34.3255,38.508693,21.839424,20.248214,Low,28.0,Inland,Inland,,
6500000.0,9.48,685654.0084,njandoorkonam,8.5843,76.9189,7.450484,47.456499,51.639692,10.124196,12.198008,Low,9.480000000536712,Inland,Inland,,
6000000.0,51.0,117647.0588,parappil,8.72005,76.9782,27.656768,36.00469,40.086646,29.870955,28.676407,Low,51.0000000102,Inland,Inland,,
32000000.0,43.5,735632.1839,kalady,8.4683,76.9629,17.53628,53.635972,57.819165,7.447503,9.930637,Low,43.50000000047579,Inland,Inland,,
1680000.0,12.0,140000.0,kilimanoor,8.7701,76.8808,27.545897,50.600084,53.265339,23.867769,23.2107,Low,12.0,Inland,Inland,,
5750000.0,5.0,1150000.0,neyyattinkara,8.4027,77.0861,33.284209,54.674092,58.857285,11.435348,11.848266,Low,5.0,Inland,Inland,,
3400000.0,13.45,252788.1041,vilavoorkal,8.4822,77.0233,23.59209,49.00981,53.193003,15.533142,10.447524,Low,13.449999999426398,Inland,Inland,,
27000000.0,15.0,1800000.0,vizhinjam,8.3932,77.0046,26.898654,59.525163,63.708356,4.045079,5.713554,Low,15.0,Inland,Inland,,
2275000.0,7.0,325000.0,karakulam,8.5672,76.9902,16.460873,40.714745,44.897938,16.116962,14.525752,High,7.0,Inland,Inland,,
40000000.0,50.0,800000.0,chempazhanthy,8.5685,76.911,5.671593,49.194384,53.377577,8.345305,9.877435,High,50.0,Inland,Inland,,
12500000.0,50.0,250000.0,cheriyakonni,8.5489,77.0255,21.27469,40.833884,45.017077,19.634896,18.043686,Low,50.0,Inland,Inland,,
4600000.0,6.9,666666.6667,nettayam,8.5403,76.9902,16.394985,44.237913,48.421106,14.506814,12.915604,Low,6.899999999655001,Inland,Inland,,
5000000.0,50.0,100000.0,thakaraparambu,8.4862,76.9467,14.229141,51.758808,55.942001,6.272516,7.034103,High,50.0,Inland,Inland,,
3600000.0,6.0,600000.0,irumpa,8.5622,77.0017,18.929841,40.570126,44.753319,18.058031,16.466821,Low,6.0,Inland,Inland,,
5510000.0,19.0,290000.0,mavinmoodu junction,8.7601,76.7854,27.085199,63.071235,65.73649,11.281368,20.611964,High,19.0,Inland,Inland,,
35700000.0,21.0,1700000.0,kumarapuram,8.5118,76.9253,11.265095,50.934787,55.11798,5.661267,4.070057,Low,21.0,Inland,Inland,,
22500000.0,15.0,1500000.0,kazhakkoottam,8.5686,76.8731,1.3051,54.06213,58.245323,3.089955,8.289953,Low,15.0,Inland,Inland,,
3000000.0,10.0,300000.0,janardhanapuram,8.4973,76.9485,14.096683,50.388107,54.5713,6.807043,6.993132,Low,10.0,Inland,Inland,,
55000000.0,20.5,2296375.5430500004,eanchakkal,8.4832,76.9283,12.376686,53.793431,57.976624,4.90569,5.756844,Low,20.50000000205,Inland,Inland,,
10300000.0,9.85,1045685.279,maruthumkuzhi,8.5119,76.983,16.735391,48.145706,52.328899,11.575392,10.989319,Low,9.850000001769176,Inland,Inland,,
4200000.0,5.25,800000.0,keraladityapuram,8.564,76.9341,8.72069,46.414246,50.597439,11.394402,9.994986,Low,5.25,Inland,Inland,,
4025000.0,7.0,575000.0,keraladithiyapuram,8.564,76.9341,8.72069,46.414246,50.597439,11.394402,9.994986,Low,7.0,Inland,Inland,,
6000000.0,48.0,125000.0,vellanad,8.5642,77.0593,25.785434,35.7125,39.895693,24.531399,22.940189,Low,48.0,Inland,Inland,,
8000000.0,5.0,1600000.0,karamana,8.482,76.9661,16.828027,51.927718,56.110911,7.535672,9.632989,Low,5.0,Inland,Inland,,
1050000.0,6.0,175000.0,venjaramoodu,8.6781,76.9096,16.182971,46.857726,51.040919,18.397158,17.042901,Low,6.0,Inland,Inland,,
11000000.0,102.0,107843.1373,attingal,8.6982,76.8137,18.106345,58.660363,62.843556,16.803479,11.596318,Low,101.99999995734544,Inland,Inland,,
8500000.0,5.0,1700000.0,poojappura,8.488,76.9809,17.666302,51.066598,55.249791,9.785814,10.264713,Low,5.0,Inland,Inland,,
4800000.0,45.0,106666.6667,vellarada,8.4497,77.1957,45.870512,55.487679,59.670872,26.450605,28.426036,Low,44.9999999859375,Inland,Inland,,
11100000.0,12.0,925000.0,kudappanakunnu,8.549,76.9624,12.911424,44.62843,48.811623,12.428108,10.836898,Low,12.0,Inland,Inland,,
6000000.0,10.0,600000.0,powdikonam,8.5731,76.9261,7.703057,46.78539,50.968583,10.376769,10.711044,Low,10.0,Inland,Inland,,
50000000.0,50.0,1000000.0,balaramapuram,8.4321,77.0503,28.722221,51.713743,55.896936,10.107014,7.286278,Low,50.0,Inland,Inland,,
3500000.0,7.5,466666.6667,puliyarakonam,8.5399,77.0176,20.788535,42.973616,47.156809,17.943719,17.133328,Low,7.499999999464285,Inland,Inland,,
8000000.0,40.0,200000.0,kattakkada,8.5033,77.0852,29.967282,42.455763,46.638956,20.251251,17.19968,Low,40.0,Inland,Inland,,
3000000.0,30.0,100000.0,kallambalam,8.7629,76.7914,26.169544,62.15558,64.820835,12.01761,19.696309,Low,30.0,Inland,Inland,,
5200000.0,8.0,650000.0,pachalloor,8.4266,76.9614,19.692934,59.016229,63.199422,4.293528,8.397903,Low,8.0,Inland,Inland,,
8100000.0,9.0,900000.0,vattiyoorkavu,8.5241,76.9882,16.537754,46.100144,50.283337,12.962364,12.151973,Low,9.0,Inland,Inland,,
7800000.0,7.1,1098591.549,kesari nagar,8.4903,76.9801,17.701905,50.87141,55.054603,10.047161,10.52606,Low,7.100000001911538,Inland,Inland,,
6250000.0,12.5,500000.0,njandoorkonam,8.5843,76.9189,7.450484,47.456499,51.639692,10.124196,12.198008,Low,12.5,Inland,Inland,,
10000000.0,14.0,714285.7143,trikkannapuram,8.4803,77.0003,20.391131,50.789639,54.972832,12.222736,8.649683,Low,13.99999999972,Inland,Inland,,
13000000.0,10.0,1300000.0,kaniyapuram,8.5844,76.8503,4.769451,55.768939,59.952132,3.451234,11.161453,Low,10.0,Inland,Inland,,
1700000.0,5.0,340000.0,puliyarakonam,8.5399,77.0176,20.788535,42.973616,47.156809,17.943719,17.133328,Low,5.0,Inland,Inland,,
3700000.0,46.25,80000.0,venkulam,8.7733,76.6918,35.275538,75.794612,78.459867,5.26304,26.046663,Low,46.25,Inland,Inland,,
13200000.0,22.0,600000.0,kovalam,8.3988,76.982,23.553144,62.189857,66.37305,1.251557,5.736696,Low,22.0,Sea view,Inland,,
13200000.0,11.0,1200000.0,kanjirampara,8.5171,76.9773,15.780727,47.735388,51.918581,11.896085,11.310012,Low,11.0,Inland,Inland,,
4700000.0,10.0,470000.0,njandoorkonam,8.5843,76.9189,7.450484,47.456499,51.639692,10.124196,12.198008,Low,10.0,Inland,Inland,,
6200000.0,5.4,1148148.148,pangappara,8.5587,76.898,4.164973,51.468139,55.651332,6.838685,8.480528,Low,5.400000000696774,Inland,Inland,,
1400000.0,4.0,350000.0,ooruttambalam,8.4567,77.0593,29.431308,48.697702,52.880895,13.542168,10.430145,Low,4.0,Inland,Inland,,
2800000.0,6.0,466666.6667,vattappara,8.5927,76.9499,12.137705,42.670325,46.853518,14.811417,15.145692,Low,5.999999999571428,Inland,Inland,,
6300000.0,5.4,1166666.667,pangappara,8.5587,76.898,4.164973,51.468139,55.651332,6.838685,8.480528,Low,5.399999998457143,Inland,Inland,,
23000000.0,163.0,141104.2945,vithura,8.6753,77.0852,36.060227,19.26824,23.451433,37.68203,36.09082,Low,162.99999997519566,Inland,Inland,,
3200000.0,6.2,516129.0323,pinkulam karode,8.3104,77.11,42.898103,68.170104,72.353297,4.291889,22.282022,Low,6.199999999496249,Inland,Inland,,
6500000.0,17.0,382352.9412,pravachambalam,8.4494,77.0115,23.16121,54.077387,58.26058,9.69703,4.605345,Low,16.999999998953847,Inland,Inland,,
15600000.0,125.0,124800.0,vellarada,8.4497,77.1957,45.870512,55.487679,59.670872,26.450605,28.426036,Low,125.0,Inland,Inland,,
3600000.0,12.0,300000.0,korani,8.6645,76.8403,13.053363,56.995348,61.178541,13.407005,7.973785,Low,12.0,Inland,Inland,,
6900000.0,23.0,300000.0,dhanuvachapuram,8.3839,77.1284,39.091777,60.538666,64.721859,12.613436,17.655834,High,23.0,Inland,Inland,,
52500000.0,24.5,2142857.143,murinjapalam,8.5162,76.9319,11.094788,50.327682,54.510875,6.259731,4.668521,High,24.499999998366665,Inland,Inland,,
6000000.0,24.0,250000.0,attingal,8.6982,76.8137,18.106345,58.660363,62.843556,16.803479,11.596318,Low,24.0,Inland,Inland,,
3360000.0,7.0,480000.0,uliyazhathura,8.5801,76.921,7.949606,47.488333,51.671526,10.623318,12.144122,Low,7.0,Inland,Inland,,
3000000.0,30.0,100000.0,kattakkada,8.5033,77.0852,29.967282,42.455763,46.638956,20.251251,17.19968,Low,30.0,Inland,Inland,,
22300000.0,9.07,2296375.5430500004,peroorkada,8.5376,76.9666,13.216524,44.763425,48.946618,11.353845,9.762635,High,9.070000001049356,Inland,Inland,,
27100000.0,15.5,1748387.097,karikkakam,8.5033,76.9055,9.393678,54.687735,58.870928,2.939657,2.756722,Low,15.499999997998154,Sea view,Lake view,,
3600000.0,6.69,538116.5919,anthivilakku karumom,8.4547,76.9779,20.110336,55.89022,60.073413,7.911708,7.62741,Low,6.690000000351225,Inland,Inland,,
4500000.0,10.0,450000.0,pravachambalam,8.4494,77.0115,23.16121,54.077387,58.26058,9.69703,4.605345,Low,10.0,Inland,Inland,,
63000000.0,42.0,1500000.0,janardhanapuram,8.4973,76.9485,14.096683,50.388107,54.5713,6.807043,6.993132,Low,42.0,Inland,Inland,,
4000000.0,10.0,400000.0,pravachambalam,8.4494,77.0115,23.16121,54.077387,58.26058,9.69703,4.605345,Low,10.0,Inland,Inland,,
14300000.0,22.0,650000.0,kazhakkoottam,8.5686,76.8731,1.3051,54.06213,58.245323,3.089955,8.289953,Low,22.0,Inland,Inland,,
73900000.0,87.0,849425.2874,kazhakkoottam,8.5686,76.8731,1.3051,54.06213,58.245323,3.089955,8.289953,Low,86.99999999552638,Inland,Inland,,
11300000.0,25.0,452000.0,menamkulam,8.5587,76.8591,3.939382,56.696412,60.879605,1.250109,8.382195,Low,25.0,Sea view,Inland,,
3638000.0,6.93,524963.925,mangalapuram,8.6242,76.8485,8.468869,54.078949,58.262142,8.822511,7.944839,Low,6.929999999523776,Inland,Inland,,
5800000.0,7.5,773333.3333,pappanamcode,8.4697,76.9818,19.03315,53.303922,57.487115,9.705932,8.051016,Low,7.500000000323276,Inland,Inland,,
1750000.0,28.0,62500.0,melattumoozhy jn,8.7155,76.9234,22.785691,44.043052,48.226245,24.999878,23.80533,Low,28.0,Inland,Inland,,
9600000.0,8.0,1200000.0,mannanthala,8.5616,76.9427,9.841727,45.625621,49.808814,11.934242,10.343032,Low,8.0,Inland,Inland,,
2300000.0,23.0,100000.0,hariharapuram,8.7878,76.7025,37.636997,74.519805,77.18506,9.545448,28.408122,Low,23.0,Inland,Inland,,
2325000.0,7.5,310000.0,kallambalam,8.7629,76.7914,26.169544,62.15558,64.820835,12.01761,19.696309,Low,7.5,Inland,Inland,,
14000000.0,28.0,500000.0,thiruvallam,8.4479,76.9557,18.116752,56.031606,60.214799,6.992976,10.639722,Low,28.0,Inland,Inland,,
2700000.0,32.0,84375.0,venjaramoodu,8.6781,76.9096,16.182971,46.857726,51.040919,18.397158,17.042901,Low,32.0,Inland,Inland,,
67500000.0,25.0,2296375.5430500004,kuravankonam,8.5243,76.9542,12.6403,47.342422,51.525615,9.142452,7.551242,High,25.0,Inland,Inland,,
8580000.0,33.0,260000.0,anad,8.6335,77.0111,23.401113,32.111509,36.294702,25.022916,23.431706,Low,33.0,Inland,Inland,,
4100000.0,4.55,901098.9011,kunnapuzha,8.4912,76.9963,19.593986,49.915616,54.098809,11.672219,9.947392,Low,4.549999999994451,Inland,Inland,,
2700000.0,3.0,900000.0,kanjirampara,8.5171,76.9773,15.780727,47.735388,51.918581,11.896085,11.310012,Low,3.0,Inland,Inland,,
4100000.0,4.55,901098.9011,njalikonam,8.4861,76.9936,19.517137,50.703388,54.886581,11.348742,9.941589,Low,4.549999999994451,Inland,Inland,,
3500000.0,7.25,482758.6207,alamcode,8.7239,76.8181,21.465847,58.833707,62.157557,15.143326,14.992612,Low,7.249999999844642,Inland,Inland,,
2000000.0,4.0,500000.0,melarannoor,8.4862,76.9683,16.671811,51.58186,55.765053,8.008593,9.761264,Low,4.0,Inland,Inland,,
3200000.0,6.4,500000.0,maranalloor,8.4717,77.0725,29.621348,46.281591,50.464784,15.539166,12.487595,Low,6.4,Inland,Inland,,
2000000.0,5.0,400000.0,maranalloor,8.4717,77.0725,29.621348,46.281591,50.464784,15.539166,12.487595,Low,5.0,Inland,Inland,,
20000000.0,125.0,160000.0,mudakkal,8.7001,76.8663,19.841247,53.471571,57.654764,20.243405,14.901519,Low,125.0,Inland,Inland,,
4200000.0,6.0,700000.0,techno residency mangalapuram,8.6115,76.8407,7.829839,56.16515,60.348343,7.244074,7.922625,Low,6.0,Inland,Inland,,
4400000.0,8.0,550000.0,alummoodu,8.3988,77.0881,33.752249,55.199138,59.382331,10.890747,12.316306,Low,8.0,Inland,Inland,,
35000000.0,100.0,350000.0,vellanad,8.5642,77.0593,25.785434,35.7125,39.895693,24.531399,22.940189,Low,100.0,Inland,Inland,,
6725000.0,24.0,280208.3333,mangalapuram,8.6242,76.8485,8.468869,54.078949,58.262142,8.822511,7.944839,Low,24.000000002855018,Inland,Inland,,
1500000.0,10.0,150000.0,mudakkal,8.7001,76.8663,19.841247,53.471571,57.654764,20.243405,14.901519,Low,10.0,Inland,Inland,,
20000000.0,10.4,1923076.923,chirayinkeezhu,8.6559,76.7832,17.625025,63.593848,67.777041,13.807769,6.636703,Low,10.400000000416,Inland,Inland,,
625000.0,7.75,80645.16129,maruthoor,8.5733,76.9447,10.291492,44.381455,48.564648,12.965204,11.99152,Low,7.750000000031,Inland,Inland,,
9100000.0,13.0,700000.0,vattiyoorkavu,8.5241,76.9882,16.537754,46.100144,50.283337,12.962364,12.151973,Low,13.0,Inland,Inland,,
7800000.0,11.0,709090.9091,peyad,8.5173,77.0237,22.032659,45.040947,49.22414,15.810231,14.532601,Low,10.999999999858971,Inland,Inland,,
3000000.0,15.0,200000.0,alamcode,8.7239,76.8181,21.465847,58.833707,62.157557,15.143326,14.992612,Low,15.0,Inland,Inland,,
8500000.0,17.0,500000.0,pottayil,8.4917,77.0205,22.234314,48.219319,52.402512,15.126895,11.098244,Low,17.0,Inland,Inland,,
1200000.0,2.75,436363.6364,perukavu,8.4941,77.0118,21.344934,48.453402,52.636595,14.237515,10.894571,Low,2.749999999770833,Inland,Inland,,
19200000.0,16.0,1200000.0,kanyakulangara,8.6312,76.9369,13.660707,42.960985,47.144178,16.24636,18.312064,High,16.0,Inland,Inland,,
3750000.0,15.0,250000.0,pothencode,8.6195,76.8987,8.680096,47.789459,51.972652,11.139722,14.389154,Low,15.0,Inland,Inland,,
2200000.0,3.35,656716.4179,madavoorpara road,8.5909,76.9051,6.790281,49.719374,53.902567,9.463993,12.890635,Low,3.3500000000532952,Inland,Inland,,
11000000.0,22.0,500000.0,mudavoorpara,8.5942,76.9065,7.038579,49.967672,54.150865,9.712291,13.138933,Low,22.0,Inland,Inland,,
4200000.0,7.0,600000.0,perukavu,8.4941,77.0118,21.344934,48.453402,52.636595,14.237515,10.894571,Low,7.0,Inland,Inland,,
12000000.0,12.5,960000.0,pappanamcode,8.4697,76.9818,19.03315,53.303922,57.487115,9.705932,8.051016,Low,12.5,Inland,Inland,,
15000000.0,16.4,914634.1463,karumkulam,8.3384,77.0478,34.508812,63.545979,67.729172,3.193232,14.766397,High,16.400000000743468,Inland,Inland,,
7500000.0,7.0,1071428.571,sreekariyam,8.5468,76.9164,6.659485,49.753912,53.937105,8.572485,6.981275,Low,7.0000000028,Inland,Inland,,
5000000.0,10.0,500000.0,vilappilsala,8.5302,77.043,24.499694,41.495555,45.678748,18.758983,17.280862,Low,10.0,Inland,Inland,,
10000000.0,10.0,1000000.0,venganoor,8.4051,77.0056,26.741916,58.974826,63.158019,4.622647,4.105535,Low,10.0,Inland,Inland,,
3220000.0,7.0,460000.0,kattakkada,8.5033,77.0852,29.967282,42.455763,46.638956,20.251251,17.19968,Low,7.0,Inland,Inland,,
12000000.0,30.0,400000.0,kazhakkoottam,8.5686,76.8731,1.3051,54.06213,58.245323,3.089955,8.289953,Low,30.0,Inland,Inland,,
15000000.0,27.5,545454.5455,keraladityapuram,8.564,76.9341,8.72069,46.414246,50.597439,11.394402,9.994986,Low,27.499999997708333,Inland,Inland,,
9000000.0,7.0,1285714.286,vettamukku,8.5066,76.9858,17.774202,48.59153,52.774723,11.832711,12.02813,Low,6.999999998444444,Inland,Inland,,
4200000.0,14.0,300000.0,karakonam,8.3906,77.1686,44.352106,60.405938,64.589131,18.305709,23.188205,Low,14.0,Inland,Inland,,
11500000.0,7.12,1615168.539,vallakkadavu,8.475,76.9195,14.243906,56.705267,60.88846,1.158748,8.862686,Low,7.120000001436382,Sea view,Inland,,
4500000.0,5.15,873786.4078,chenkottukonam,8.5838,76.9024,5.331495,49.784346,53.967539,8.005207,11.549004,Low,5.149999999805444,Inland,Inland,,
8400000.0,10.5,800000.0,kazhakkoottam,8.5686,76.8731,1.3051,54.06213,58.245323,3.089955,8.289953,Low,10.5,Inland,Inland,,
37000000.0,37.0,1000000.0,nellimoodu,8.3811,77.0421,31.857701,58.892372,63.075565,5.717811,9.422476,Low,37.0,Inland,Inland,,
8000000.0,10.0,800000.0,malayinkeezh,8.4902,77.0361,24.337032,47.113524,51.296717,16.808597,11.716912,Low,10.0,Inland,Inland,,
17600000.0,8.0,2200000.0,ptp nagar,8.5115,76.9909,17.622995,47.816632,51.999825,12.841586,12.255513,Low,8.0,Inland,Inland,,
10500000.0,15.0,700000.0,pothencode,8.6195,76.8987,8.680096,47.789459,51.972652,11.139722,14.389154,Low,15.0,Inland,Inland,,
2040000.0,4.0,510000.0,balaramapuram,8.4321,77.0503,28.722221,51.713743,55.896936,10.107014,7.286278,Low,4.0,Inland,Inland,,
7200000.0,20.0,360000.0,alamcode,8.7239,76.8181,21.465847,58.833707,62.157557,15.143326,14.992612,Low,20.0,Inland,Inland,,
3000000.0,30.0,100000.0,keezharoor,8.4618,77.1313,37.901223,49.89612,54.079313,22.910201,20.488236,Low,30.0,Inland,Inland,,
3800000.0,5.0,760000.0,karyavattom,8.5678,76.8908,2.866703,52.08072,56.263913,5.540415,9.009202,Low,5.0,Inland,Inland,,
8000000.0,20.0,400000.0,vattappara,8.5927,76.9499,12.137705,42.670325,46.853518,14.811417,15.145692,Low,20.0,Inland,Inland,,
8400000.0,24.0,350000.0,puthenthope,8.5767,76.8361,6.509575,58.038487,62.22168,2.118422,11.842029,Low,24.0,Sea view,Inland,,
8500000.0,8.5,1000000.0,peroorkada,8.5376,76.9666,13.216524,44.763425,48.946618,11.353845,9.762635,Low,8.5,Inland,Inland,,
2800000.0,7.0,400000.0,aruvikkara,8.5654,77.0161,19.941956,38.705062,42.888255,19.304954,17.713744,Low,7.0,Inland,Inland,,
1800000.0,6.0,300000.0,thirumala,8.5041,76.9917,18.7736,48.798465,52.981658,11.666181,11.668466,Low,6.0,Inland,Inland,,
7700000.0,5.5,1400000.0,maruthankuzhi,8.5315,76.9926,16.991334,45.286898,49.470091,14.204962,13.394571,Low,5.5,Inland,Inland,,
19000000.0,14.53,1307639.367,muttada,8.5338,76.9471,11.165785,47.385297,51.56849,9.602435,8.011225,Low,14.529999998080507,Inland,Inland,,
9000000.0,9.0,1000000.0,pipinmoodu,8.5216,76.9708,14.420745,46.791564,50.974757,11.377576,10.111304,Low,9.0,Inland,Inland,,
16600000.0,83.0,200000.0,vilappilsala,8.5302,77.043,24.499694,41.495555,45.678748,18.758983,17.280862,Low,83.0,Inland,Inland,,
20000000.0,10.0,2000000.0,vazhuthacaud,8.5021,76.9642,15.16898,49.609433,53.792626,9.201311,9.256714,Low,10.0,Inland,Inland,,
23000000.0,40.0,575000.0,puthenthope,8.5767,76.8361,6.509575,58.038487,62.22168,2.118422,11.842029,Low,40.0,Sea view,Inland,,
19600000.0,56.0,350000.0,kaniyapuram,8.5844,76.8503,4.769451,55.768939,59.952132,3.451234,11.161453,High,56.0,Inland,Inland,,
3500000.0,5.25,666666.6667,thampanoor,8.4909,76.9527,15.21302,51.109995,55.293188,7.86567,8.261072,Low,5.249999999737501,Inland,Inland,,
6800000.0,8.0,850000.0,peyad,8.5173,77.0237,22.032659,45.040947,49.22414,15.810231,14.532601,Low,8.0,Inland,Inland,,
3300000.0,16.5,200000.0,alummoodu,8.3988,77.0881,33.752249,55.199138,59.382331,10.890747,12.316306,Low,16.5,Inland,Inland,,
16000000.0,40.0,400000.0,keltron junction,8.5702,76.9891,16.301716,40.074369,44.257562,16.407986,14.816776,Low,40.0,Inland,Inland,,
3850000.0,4.1,939024.3902,vazhayila,8.5493,76.9773,14.941109,43.221928,47.405121,13.319156,11.727946,Low,4.100000000191688,Inland,Inland,,
2600000.0,28.0,92857.14286,vembayam,8.6393,76.9369,14.280645,42.998393,47.181586,16.740271,19.355085,Low,27.99999999913846,Inland,Inland,,
4500000.0,15.0,300000.0,chenkottukonam,8.5838,76.9024,5.331495,49.784346,53.967539,8.005207,11.549004,Low,15.0,Inland,Inland,,
22000000.0,17.0,1294117.647,kazhakkoottam,8.5686,76.8731,1.3051,54.06213,58.245323,3.089955,8.289953,High,17.000000000772726,Inland,Inland,,
85500000.0,32.0,2296375.5430500004,vellayambalam,8.5086,76.9657,14.934039,48.781893,52.965086,9.77404,9.187967,Low,32.0,Inland,Inland,,
11000000.0,5.0,2200000.0,sreevaraham,8.4776,76.942,14.170828,53.174086,57.357279,5.036668,7.29075,Low,5.0,Inland,Inland,,
3300000.0,7.0,471428.5714,kattakkada,8.5033,77.0852,29.967282,42.455763,46.638956,20.251251,17.19968,Low,7.000000000424242,Inland,Inland,,
3000000.0,42.0,71428.57143,pazhakutty,8.6117,76.9945,20.155434,35.772186,39.955379,22.180047,20.588837,Low,41.99999999916,Inland,Inland,,
7000000.0,30.0,233333.3333,marayamuttom,8.4165,77.1082,36.100454,55.447474,59.630667,14.522803,15.175828,Low,30.00000000428572,Inland,Inland,,
5400000.0,4.3,1255813.953,kazhakkoottam,8.5686,76.8731,1.3051,54.06213,58.245323,3.089955,8.289953,Low,4.300000001672222,Inland,Inland,,
2500000.0,25.0,100000.0,thoongampara,8.4908,77.0752,29.862929,44.346894,48.530087,18.296323,15.244752,Low,25.0,Inland,Inland,,
53600000.0,67.0,800000.0,neyyattinkara,8.4027,77.0861,33.284209,54.674092,58.857285,11.435348,11.848266,High,67.0,Inland,Inland,,
39000000.0,13.0,2296375.5430500004,vattiyoorkavu,8.5241,76.9882,16.537754,46.100144,50.283337,12.962364,12.151973,Low,13.0,Inland,Inland,,
4800000.0,3.0,1600000.0,ambalathara,8.4546,76.9542,17.334053,55.457479,59.640672,6.445303,10.714211,Low,3.0,Inland,Inland,,
7000000.0,20.0,350000.0,vattappara,8.5927,76.9499,12.137705,42.670325,46.853518,14.811417,15.145692,Low,20.0,Inland,Inland,,
9800000.0,12.0,816666.6667,nalanchira,8.5392,76.948,10.685045,46.75897,50.942163,9.964972,8.373762,Low,11.999999999510203,Inland,Inland,,
8100000.0,12.0,675000.0,vellayani,8.4453,76.9925,22.592664,54.965957,59.14915,9.760065,4.66838,Low,12.0,Inland,Inland,,
3500000.0,10.0,350000.0,pazhakutty,8.6117,76.9945,20.155434,35.772186,39.955379,22.180047,20.588837,Low,10.0,Inland,Inland,,
3600000.0,6.0,600000.0,kovalam,8.3988,76.982,23.553144,62.189857,66.37305,1.251557,5.736696,Low,6.0,Sea view,Inland,,
7374000.0,12.29,600000.0,attingal,8.6982,76.8137,18.106345,58.660363,62.843556,16.803479,11.596318,Low,12.29,Inland,Inland,,
3000000.0,4.0,750000.0,alathara,8.5326,76.8983,6.901241,53.108384,57.291577,6.638185,4.550691,Low,4.0,Inland,Inland,,
3600000.0,6.0,600000.0,kovalam,8.3988,76.982,23.553144,62.189857,66.37305,1.251557,5.736696,Low,6.0,Sea view,Inland,,
2400000.0,4.0,600000.0,vellayani,8.4453,76.9925,22.592664,54.965957,59.14915,9.760065,4.66838,Low,4.0,Inland,Inland,,
40000000.0,250.0,160000.0,puthukurichy,8.603,76.8188,9.533561,60.118109,64.301302,5.940703,9.449691,Low,250.0,Inland,Inland,,
1350000.0,3.05,442622.9508,venchavode,8.5796,76.9045,5.346688,49.7798,53.962993,8.0204,11.26792,Low,3.050000000135556,Inland,Inland,,
32500000.0,21.0,1547619.048,arappuramukku,8.5115,76.9909,17.622995,47.816632,51.999825,12.841586,12.255513,High,20.99999999483077,Inland,Inland,,
3800000.0,9.5,400000.0,muttakkad,8.4074,76.9888,24.465097,60.872938,65.056131,2.720258,4.049393,Low,9.5,Sea view,Inland,,
3500000.0,3.0,1166666.667,ambalamukku,8.5319,76.9601,12.48052,45.839985,50.023178,10.270265,8.679055,Low,2.999999999142857,Inland,Inland,,
27000000.0,13.0,2076923.077,pettah,8.495,76.9294,11.817389,52.023666,56.206859,4.436262,4.622351,Low,12.999999999518518,Inland,Inland,,
4000000.0,16.5,242424.2424,kallambalam,8.7629,76.7914,26.169544,62.15558,64.820835,12.01761,19.696309,Low,16.50000000165,Inland,Inland,,
8500000.0,4.5,1888888.889,kuravankonam,8.5243,76.9542,12.6403,47.342422,51.525615,9.142452,7.551242,Low,4.499999999735294,Inland,Inland,,
8000000.0,20.0,400000.0,karette,8.7308,76.898,22.402617,47.852306,51.514579,24.616804,21.037835,Low,20.0,Inland,Inland,,
6000000.0,10.0,600000.0,pravachambalam,8.4494,77.0115,23.16121,54.077387,58.26058,9.69703,4.605345,Low,10.0,Inland,Inland,,
16000000.0,20.0,800000.0,kaniyapuram,8.5844,76.8503,4.769451,55.768939,59.952132,3.451234,11.161453,Low,20.0,Inland,Inland,,
7500000.0,4.5,1666666.667,kazhakkoottam,8.5686,76.8731,1.3051,54.06213,58.245323,3.089955,8.289953,Low,4.4999999991,Inland,Inland,,
4025000.0,7.0,575000.0,keraladityapuram,8.564,76.9341,8.72069,46.414246,50.597439,11.394402,9.994986,Low,7.0,Inland,Inland,,
6500000.0,7.0,928571.4286,pachalloor,8.4266,76.9614,19.692934,59.016229,63.199422,4.293528,8.397903,High,6.999999999784616,Inland,Inland,,
4800000.0,6.0,800000.0,peyad,8.5173,77.0237,22.032659,45.040947,49.22414,15.810231,14.532601,Low,6.0,Inland,Inland,,
